[
  {
    "city_id": 372,
    "name_fa": "آبیش احمد",
    "name_en": "Abish Ahmad",
    "province": {
      "province_id": 1,
      "name_fa": "آذربایجان شرقی",
      "name_en": "East Azarbaijan"
    },
    "location": {
      "longitude": 47.3169755,
      "latitude": 39.0431974
    },
    "created_at": "2026-02-09T16:01:37.577582+00:00",
    "updated_at": "2026-02-09T16:01:37.577582+00:00"
  },
  {
    "city_id": 243,
    "name_fa": "عجب‌ شیر",
    "name_en": "Ajab Shir",
    "province": {
      "province_id": 1,
      "name_fa": "آذربایجان شرقی",
      "name_en": "East Azarbaijan"
    },
    "location": {
      "longitude": 45.8936922,
      "latitude": 37.4770929
    },
    "created_at": "2026-02-09T16:01:36.550182+00:00",
    "updated_at": "2026-02-09T16:01:36.550182+00:00"
  },
  {
    "city_id": 388,
    "name_fa": "آق کند",
    "name_en": "Aq kand",
    "province": {
      "province_id": 1,
      "name_fa": "آذربایجان شرقی",
      "name_en": "East Azarbaijan"
    },
    "location": {
      "longitude": 48.0648621,
      "latitude": 37.2575571
    },
    "created_at": "2026-02-09T16:01:37.687987+00:00",
    "updated_at": "2026-02-09T16:01:37.687987+00:00"
  },
  {
    "city_id": 20,
    "name_fa": "آذرشهر",
    "name_en": "Azarshahr",
    "province": {
      "province_id": 1,
      "name_fa": "آذربایجان شرقی",
      "name_en": "East Azarbaijan"
    },
    "location": {
      "longitude": 45.9781014,
      "latitude": 37.7576638
    },
    "created_at": "2026-02-09T16:01:34.622913+00:00",
    "updated_at": "2026-02-09T16:01:34.622913+00:00"
  },
  {
    "city_id": 379,
    "name_fa": "بخشایش",
    "name_en": "Bakhshayesh",
    "province": {
      "province_id": 1,
      "name_fa": "آذربایجان شرقی",
      "name_en": "East Azarbaijan"
    },
    "location": {
      "longitude": 46.9471214,
      "latitude": 38.131648
    },
    "created_at": "2026-02-09T16:01:37.627680+00:00",
    "updated_at": "2026-02-09T16:01:37.627680+00:00"
  },
  {
    "city_id": 486,
    "name_fa": "باسمنج",
    "name_en": "Basmenj",
    "province": {
      "province_id": 1,
      "name_fa": "آذربایجان شرقی",
      "name_en": "East Azarbaijan"
    },
    "location": {
      "longitude": 46.4749113,
      "latitude": 37.9955619
    },
    "created_at": "2026-02-09T16:01:38.508557+00:00",
    "updated_at": "2026-02-09T16:01:38.508557+00:00"
  },
  {
    "city_id": 19,
    "name_fa": "بناب",
    "name_en": "Bonab",
    "province": {
      "province_id": 1,
      "name_fa": "آذربایجان شرقی",
      "name_en": "East Azarbaijan"
    },
    "location": {
      "longitude": 46.050471,
      "latitude": 37.3409239
    },
    "created_at": "2026-02-09T16:01:34.616919+00:00",
    "updated_at": "2026-02-09T16:01:34.616919+00:00"
  },
  {
    "city_id": 137,
    "name_fa": "بناب جدید",
    "name_en": "Bonab-e-Jadid",
    "province": {
      "province_id": 1,
      "name_fa": "آذربایجان شرقی",
      "name_en": "East Azarbaijan"
    },
    "location": {
      "longitude": 45.9086682,
      "latitude": 38.428347
    },
    "created_at": "2026-02-09T16:01:35.673697+00:00",
    "updated_at": "2026-02-09T16:01:35.673697+00:00"
  },
  {
    "city_id": 29,
    "name_fa": "بستان آباد",
    "name_en": "Bostanabad",
    "province": {
      "province_id": 1,
      "name_fa": "آذربایجان شرقی",
      "name_en": "East Azarbaijan"
    },
    "location": {
      "longitude": 46.8339774,
      "latitude": 37.8429496
    },
    "created_at": "2026-02-09T16:01:34.696412+00:00",
    "updated_at": "2026-02-09T16:01:34.696412+00:00"
  },
  {
    "city_id": 389,
    "name_fa": "دوزدوزان",
    "name_en": "Duzduzan",
    "province": {
      "province_id": 1,
      "name_fa": "آذربایجان شرقی",
      "name_en": "East Azarbaijan"
    },
    "location": {
      "longitude": 47.119787,
      "latitude": 37.948976
    },
    "created_at": "2026-02-09T16:01:37.696004+00:00",
    "updated_at": "2026-02-09T16:01:37.696004+00:00"
  },
  {
    "city_id": 242,
    "name_fa": "گوگان",
    "name_en": "Gugan",
    "province": {
      "province_id": 1,
      "name_fa": "آذربایجان شرقی",
      "name_en": "East Azarbaijan"
    },
    "location": {
      "longitude": 45.9038288,
      "latitude": 37.7818413
    },
    "created_at": "2026-02-09T16:01:36.543486+00:00",
    "updated_at": "2026-02-09T16:01:36.543486+00:00"
  },
  {
    "city_id": 28,
    "name_fa": "هادیشهر",
    "name_en": "Hadishahr",
    "province": {
      "province_id": 1,
      "name_fa": "آذربایجان شرقی",
      "name_en": "East Azarbaijan"
    },
    "location": {
      "longitude": 45.6648065,
      "latitude": 38.8416756
    },
    "created_at": "2026-02-09T16:01:34.688721+00:00",
    "updated_at": "2026-02-09T16:01:34.688721+00:00"
  },
  {
    "city_id": 384,
    "name_fa": "هریس",
    "name_en": "Heris",
    "province": {
      "province_id": 1,
      "name_fa": "آذربایجان شرقی",
      "name_en": "East Azarbaijan"
    },
    "location": {
      "longitude": 47.1162759,
      "latitude": 38.2472611
    },
    "created_at": "2026-02-09T16:01:37.661996+00:00",
    "updated_at": "2026-02-09T16:01:37.661996+00:00"
  },
  {
    "city_id": 240,
    "name_fa": "ایلخچی",
    "name_en": "Ilkhchi",
    "province": {
      "province_id": 1,
      "name_fa": "آذربایجان شرقی",
      "name_en": "East Azarbaijan"
    },
    "location": {
      "longitude": 45.9800159,
      "latitude": 37.9389278
    },
    "created_at": "2026-02-09T16:01:36.527400+00:00",
    "updated_at": "2026-02-09T16:01:36.527400+00:00"
  },
  {
    "city_id": 580,
    "name_fa": "جانانلو",
    "name_en": "Janan Lu",
    "province": {
      "province_id": 1,
      "name_fa": "آذربایجان شرقی",
      "name_en": "East Azarbaijan"
    },
    "location": {
      "longitude": 46.8801138,
      "latitude": 39.1207215
    },
    "created_at": "2026-02-09T16:01:39.476483+00:00",
    "updated_at": "2026-02-09T16:01:39.476483+00:00"
  },
  {
    "city_id": 421,
    "name_fa": "جلفا",
    "name_en": "Jolfa",
    "province": {
      "province_id": 1,
      "name_fa": "آذربایجان شرقی",
      "name_en": "East Azarbaijan"
    },
    "location": {
      "longitude": 45.6252101,
      "latitude": 38.9376054
    },
    "created_at": "2026-02-09T16:01:37.953516+00:00",
    "updated_at": "2026-02-09T16:01:37.953516+00:00"
  },
  {
    "city_id": 84,
    "name_fa": "کلیبر",
    "name_en": "Kaleybar",
    "province": {
      "province_id": 1,
      "name_fa": "آذربایجان شرقی",
      "name_en": "East Azarbaijan"
    },
    "location": {
      "longitude": 47.0399693,
      "latitude": 38.8629817
    },
    "created_at": "2026-02-09T16:01:35.185291+00:00",
    "updated_at": "2026-02-09T16:01:35.185291+00:00"
  },
  {
    "city_id": 373,
    "name_fa": "خواجه",
    "name_en": "Khajeh",
    "province": {
      "province_id": 1,
      "name_fa": "آذربایجان شرقی",
      "name_en": "East Azarbaijan"
    },
    "location": {
      "longitude": 46.5827856,
      "latitude": 38.1529122
    },
    "created_at": "2026-02-09T16:01:37.584681+00:00",
    "updated_at": "2026-02-09T16:01:37.584681+00:00"
  },
  {
    "city_id": 136,
    "name_fa": "خامنه",
    "name_en": "Khamaneh",
    "province": {
      "province_id": 1,
      "name_fa": "آذربایجان شرقی",
      "name_en": "East Azarbaijan"
    },
    "location": {
      "longitude": 45.6298023,
      "latitude": 38.1934507
    },
    "created_at": "2026-02-09T16:01:35.664397+00:00",
    "updated_at": "2026-02-09T16:01:35.664397+00:00"
  },
  {
    "city_id": 382,
    "name_fa": "خاروانا",
    "name_en": "Kharvana",
    "province": {
      "province_id": 1,
      "name_fa": "آذربایجان شرقی",
      "name_en": "East Azarbaijan"
    },
    "location": {
      "longitude": 46.1697582,
      "latitude": 38.6851329
    },
    "created_at": "2026-02-09T16:01:37.647675+00:00",
    "updated_at": "2026-02-09T16:01:37.647675+00:00"
  },
  {
    "city_id": 383,
    "name_fa": "خداجو",
    "name_en": "Khodaju",
    "province": {
      "province_id": 1,
      "name_fa": "آذربایجان شرقی",
      "name_en": "East Azarbaijan"
    },
    "location": {
      "longitude": 46.5310312,
      "latitude": 37.3127515
    },
    "created_at": "2026-02-09T16:01:37.654758+00:00",
    "updated_at": "2026-02-09T16:01:37.654758+00:00"
  },
  {
    "city_id": 13,
    "name_fa": "خسروشاه",
    "name_en": "Khosrowshah",
    "province": {
      "province_id": 1,
      "name_fa": "آذربایجان شرقی",
      "name_en": "East Azarbaijan"
    },
    "location": {
      "longitude": 46.0509259,
      "latitude": 37.9513096
    },
    "created_at": "2026-02-09T16:01:34.572302+00:00",
    "updated_at": "2026-02-09T16:01:34.572302+00:00"
  },
  {
    "city_id": 374,
    "name_fa": "کندرود",
    "name_en": "Kond Rud",
    "province": {
      "province_id": 1,
      "name_fa": "آذربایجان شرقی",
      "name_en": "East Azarbaijan"
    },
    "location": {
      "longitude": 46.479017,
      "latitude": 38.0098531
    },
    "created_at": "2026-02-09T16:01:37.591676+00:00",
    "updated_at": "2026-02-09T16:01:37.591676+00:00"
  },
  {
    "city_id": 387,
    "name_fa": "کشکسرای",
    "name_en": "Koshksaray",
    "province": {
      "province_id": 1,
      "name_fa": "آذربایجان شرقی",
      "name_en": "East Azarbaijan"
    },
    "location": {
      "longitude": 45.5673225,
      "latitude": 38.458553
    },
    "created_at": "2026-02-09T16:01:37.681978+00:00",
    "updated_at": "2026-02-09T16:01:37.681978+00:00"
  },
  {
    "city_id": 376,
    "name_fa": "کوزه کنان",
    "name_en": "Kuzekonan",
    "province": {
      "province_id": 1,
      "name_fa": "آذربایجان شرقی",
      "name_en": "East Azarbaijan"
    },
    "location": {
      "longitude": 45.5751442,
      "latitude": 38.1865623
    },
    "created_at": "2026-02-09T16:01:37.605683+00:00",
    "updated_at": "2026-02-09T16:01:37.605683+00:00"
  },
  {
    "city_id": 367,
    "name_fa": "لیلان",
    "name_en": "Leylan",
    "province": {
      "province_id": 1,
      "name_fa": "آذربایجان شرقی",
      "name_en": "East Azarbaijan"
    },
    "location": {
      "longitude": 46.2059139,
      "latitude": 37.0111324
    },
    "created_at": "2026-02-09T16:01:37.541579+00:00",
    "updated_at": "2026-02-09T16:01:37.541579+00:00"
  },
  {
    "city_id": 244,
    "name_fa": "ملکان",
    "name_en": "Malekan",
    "province": {
      "province_id": 1,
      "name_fa": "آذربایجان شرقی",
      "name_en": "East Azarbaijan"
    },
    "location": {
      "longitude": 46.1056025,
      "latitude": 37.1432315
    },
    "created_at": "2026-02-09T16:01:36.557946+00:00",
    "updated_at": "2026-02-09T16:01:36.557946+00:00"
  },
  {
    "city_id": 241,
    "name_fa": "ممقان",
    "name_en": "Mamqan",
    "province": {
      "province_id": 1,
      "name_fa": "آذربایجان شرقی",
      "name_en": "East Azarbaijan"
    },
    "location": {
      "longitude": 45.9729822,
      "latitude": 37.8443261
    },
    "created_at": "2026-02-09T16:01:36.535389+00:00",
    "updated_at": "2026-02-09T16:01:36.535389+00:00"
  },
  {
    "city_id": 18,
    "name_fa": "مراغه",
    "name_en": "Maragheh",
    "province": {
      "province_id": 1,
      "name_fa": "آذربایجان شرقی",
      "name_en": "East Azarbaijan"
    },
    "location": {
      "longitude": 46.2435751,
      "latitude": 37.3913128
    },
    "created_at": "2026-02-09T16:01:34.609230+00:00",
    "updated_at": "2026-02-09T16:01:34.609230+00:00"
  },
  {
    "city_id": 368,
    "name_fa": "مهربان",
    "name_en": "Mehraban",
    "province": {
      "province_id": 1,
      "name_fa": "آذربایجان شرقی",
      "name_en": "East Azarbaijan"
    },
    "location": {
      "longitude": 47.1317722,
      "latitude": 38.0806733
    },
    "created_at": "2026-02-09T16:01:37.550577+00:00",
    "updated_at": "2026-02-09T16:01:37.550577+00:00"
  },
  {
    "city_id": 378,
    "name_fa": "نظرکهریزی",
    "name_en": "Nazarkahrizi",
    "province": {
      "province_id": 1,
      "name_fa": "آذربایجان شرقی",
      "name_en": "East Azarbaijan"
    },
    "location": {
      "longitude": 46.7629592,
      "latitude": 37.34697
    },
    "created_at": "2026-02-09T16:01:37.620698+00:00",
    "updated_at": "2026-02-09T16:01:37.620698+00:00"
  },
  {
    "city_id": 375,
    "name_fa": "قره آغاج",
    "name_en": "Qara-aghaj",
    "province": {
      "province_id": 1,
      "name_fa": "آذربایجان شرقی",
      "name_en": "East Azarbaijan"
    },
    "location": {
      "longitude": 46.9745628,
      "latitude": 37.1283853
    },
    "created_at": "2026-02-09T16:01:37.598682+00:00",
    "updated_at": "2026-02-09T16:01:37.598682+00:00"
  },
  {
    "city_id": 419,
    "name_fa": "سراب",
    "name_en": "Sarab",
    "province": {
      "province_id": 1,
      "name_fa": "آذربایجان شرقی",
      "name_en": "East Azarbaijan"
    },
    "location": {
      "longitude": 47.5374867,
      "latitude": 37.9407851
    },
    "created_at": "2026-02-09T16:01:37.934957+00:00",
    "updated_at": "2026-02-09T16:01:37.934957+00:00"
  },
  {
    "city_id": 366,
    "name_fa": "سردرود",
    "name_en": "Sardrud",
    "province": {
      "province_id": 1,
      "name_fa": "آذربایجان شرقی",
      "name_en": "East Azarbaijan"
    },
    "location": {
      "longitude": 46.1474327,
      "latitude": 38.0278895
    },
    "created_at": "2026-02-09T16:01:37.534577+00:00",
    "updated_at": "2026-02-09T16:01:37.534577+00:00"
  },
  {
    "city_id": 144,
    "name_fa": "شبستر",
    "name_en": "Shabestar",
    "province": {
      "province_id": 1,
      "name_fa": "آذربایجان شرقی",
      "name_en": "East Azarbaijan"
    },
    "location": {
      "longitude": 45.7002363,
      "latitude": 38.1783704
    },
    "created_at": "2026-02-09T16:01:35.733432+00:00",
    "updated_at": "2026-02-09T16:01:35.733432+00:00"
  },
  {
    "city_id": 699,
    "name_fa": "شربیان",
    "name_en": "Sharabiyan",
    "province": {
      "province_id": 1,
      "name_fa": "آذربایجان شرقی",
      "name_en": "East Azarbaijan"
    },
    "location": {
      "longitude": 47.1008161,
      "latitude": 37.881101
    },
    "created_at": "2026-02-09T16:01:40.531129+00:00",
    "updated_at": "2026-02-09T16:01:40.531129+00:00"
  },
  {
    "city_id": 133,
    "name_fa": "بندر شرفخانه",
    "name_en": "Sharafkhaneh",
    "province": {
      "province_id": 1,
      "name_fa": "آذربایجان شرقی",
      "name_en": "East Azarbaijan"
    },
    "location": {
      "longitude": 45.4892529,
      "latitude": 38.1786897
    },
    "created_at": "2026-02-09T16:01:35.637847+00:00",
    "updated_at": "2026-02-09T16:01:35.637847+00:00"
  },
  {
    "city_id": 236,
    "name_fa": "شندآباد",
    "name_en": "Shendabad",
    "province": {
      "province_id": 1,
      "name_fa": "آذربایجان شرقی",
      "name_en": "East Azarbaijan"
    },
    "location": {
      "longitude": 45.6298841,
      "latitude": 38.1414419
    },
    "created_at": "2026-02-09T16:01:36.494973+00:00",
    "updated_at": "2026-02-09T16:01:36.494973+00:00"
  },
  {
    "city_id": 371,
    "name_fa": "سیس",
    "name_en": "Sis",
    "province": {
      "province_id": 1,
      "name_fa": "آذربایجان شرقی",
      "name_en": "East Azarbaijan"
    },
    "location": {
      "longitude": 45.8124325,
      "latitude": 38.1997037
    },
    "created_at": "2026-02-09T16:01:37.571585+00:00",
    "updated_at": "2026-02-09T16:01:37.571585+00:00"
  },
  {
    "city_id": 380,
    "name_fa": "سیه رود",
    "name_en": "Siyahrud",
    "province": {
      "province_id": 1,
      "name_fa": "آذربایجان شرقی",
      "name_en": "East Azarbaijan"
    },
    "location": {
      "longitude": 46.0023332,
      "latitude": 38.8693808
    },
    "created_at": "2026-02-09T16:01:37.635675+00:00",
    "updated_at": "2026-02-09T16:01:37.635675+00:00"
  },
  {
    "city_id": 14,
    "name_fa": "صوفیان",
    "name_en": "Sufian",
    "province": {
      "province_id": 1,
      "name_fa": "آذربایجان شرقی",
      "name_en": "East Azarbaijan"
    },
    "location": {
      "longitude": 45.981373,
      "latitude": 38.27694
    },
    "created_at": "2026-02-09T16:01:34.579177+00:00",
    "updated_at": "2026-02-09T16:01:34.579177+00:00"
  },
  {
    "city_id": 386,
    "name_fa": "تَرک",
    "name_en": "Tark",
    "province": {
      "province_id": 1,
      "name_fa": "آذربایجان شرقی",
      "name_en": "East Azarbaijan"
    },
    "location": {
      "longitude": 47.7709614,
      "latitude": 37.6162908
    },
    "created_at": "2026-02-09T16:01:37.674951+00:00",
    "updated_at": "2026-02-09T16:01:37.674951+00:00"
  },
  {
    "city_id": 235,
    "name_fa": "تسوج",
    "name_en": "Tasuj",
    "province": {
      "province_id": 1,
      "name_fa": "آذربایجان شرقی",
      "name_en": "East Azarbaijan"
    },
    "location": {
      "longitude": 45.3590459,
      "latitude": 38.3168836
    },
    "created_at": "2026-02-09T16:01:36.487247+00:00",
    "updated_at": "2026-02-09T16:01:36.487247+00:00"
  },
  {
    "city_id": 476,
    "name_fa": "تیمورلو",
    "name_en": "Teymurlu",
    "province": {
      "province_id": 1,
      "name_fa": "آذربایجان شرقی",
      "name_en": "East Azarbaijan"
    },
    "location": {
      "longitude": 45.8995042,
      "latitude": 37.8054805
    },
    "created_at": "2026-02-09T16:01:38.371039+00:00",
    "updated_at": "2026-02-09T16:01:38.371039+00:00"
  },
  {
    "city_id": 385,
    "name_fa": "تیکمه داش",
    "name_en": "Tikmedash",
    "province": {
      "province_id": 1,
      "name_fa": "آذربایجان شرقی",
      "name_en": "East Azarbaijan"
    },
    "location": {
      "longitude": 46.9375589,
      "latitude": 37.7257203
    },
    "created_at": "2026-02-09T16:01:37.668954+00:00",
    "updated_at": "2026-02-09T16:01:37.668954+00:00"
  },
  {
    "city_id": 369,
    "name_fa": "ترکمانچای",
    "name_en": "Torkamanchay",
    "province": {
      "province_id": 1,
      "name_fa": "آذربایجان شرقی",
      "name_en": "East Azarbaijan"
    },
    "location": {
      "longitude": 47.3911101,
      "latitude": 37.5816929
    },
    "created_at": "2026-02-09T16:01:37.557578+00:00",
    "updated_at": "2026-02-09T16:01:37.557578+00:00"
  },
  {
    "city_id": 237,
    "name_fa": "وایقان",
    "name_en": "Vayqan",
    "province": {
      "province_id": 1,
      "name_fa": "آذربایجان شرقی",
      "name_en": "East Azarbaijan"
    },
    "location": {
      "longitude": 45.7129464,
      "latitude": 38.1304823
    },
    "created_at": "2026-02-09T16:01:36.501980+00:00",
    "updated_at": "2026-02-09T16:01:36.501980+00:00"
  },
  {
    "city_id": 381,
    "name_fa": "یامچی",
    "name_en": "Yamchi",
    "province": {
      "province_id": 1,
      "name_fa": "آذربایجان شرقی",
      "name_en": "East Azarbaijan"
    },
    "location": {
      "longitude": 45.6404499,
      "latitude": 38.5223144
    },
    "created_at": "2026-02-09T16:01:37.641682+00:00",
    "updated_at": "2026-02-09T16:01:37.641682+00:00"
  },
  {
    "city_id": 370,
    "name_fa": "زرنق",
    "name_en": "Zarnaq",
    "province": {
      "province_id": 1,
      "name_fa": "آذربایجان شرقی",
      "name_en": "East Azarbaijan"
    },
    "location": {
      "longitude": 47.082889,
      "latitude": 38.0922769
    },
    "created_at": "2026-02-09T16:01:37.564621+00:00",
    "updated_at": "2026-02-09T16:01:37.564621+00:00"
  },
  {
    "city_id": 377,
    "name_fa": "زنوز",
    "name_en": "Zonuz",
    "province": {
      "province_id": 1,
      "name_fa": "آذربایجان شرقی",
      "name_en": "East Azarbaijan"
    },
    "location": {
      "longitude": 45.8319818,
      "latitude": 38.5880287
    },
    "created_at": "2026-02-09T16:01:37.613678+00:00",
    "updated_at": "2026-02-09T16:01:37.613678+00:00"
  },
  {
    "city_id": 665,
    "name_fa": "لاریجان",
    "name_en": "لاریجان",
    "province": {
      "province_id": 1,
      "name_fa": "آذربایجان شرقی",
      "name_en": "East Azarbaijan"
    },
    "location": {
      "longitude": 47.1970867,
      "latitude": 39.3038575
    },
    "created_at": "2026-02-09T16:01:40.128051+00:00",
    "updated_at": "2026-02-09T16:01:40.128051+00:00"
  },
  {
    "city_id": 393,
    "name_fa": "آواجیق",
    "name_en": "Avajiq",
    "province": {
      "province_id": 2,
      "name_fa": "آذربایجان غربی",
      "name_en": "Western Azerbaijan"
    },
    "location": {
      "longitude": 44.1538901,
      "latitude": 39.3301839
    },
    "created_at": "2026-02-09T16:01:37.724789+00:00",
    "updated_at": "2026-02-09T16:01:37.724789+00:00"
  },
  {
    "city_id": 35,
    "name_fa": "بازرگان",
    "name_en": "Bazargan",
    "province": {
      "province_id": 2,
      "name_fa": "آذربایجان غربی",
      "name_en": "Western Azerbaijan"
    },
    "location": {
      "longitude": 44.3876859,
      "latitude": 39.3886668
    },
    "created_at": "2026-02-09T16:01:34.741384+00:00",
    "updated_at": "2026-02-09T16:01:34.741384+00:00"
  },
  {
    "city_id": 390,
    "name_fa": "چهاربرج",
    "name_en": "Chaharborj",
    "province": {
      "province_id": 2,
      "name_fa": "آذربایجان غربی",
      "name_en": "Western Azerbaijan"
    },
    "location": {
      "longitude": 45.9772001,
      "latitude": 37.1250023
    },
    "created_at": "2026-02-09T16:01:37.701977+00:00",
    "updated_at": "2026-02-09T16:01:37.701977+00:00"
  },
  {
    "city_id": 397,
    "name_fa": "فیرورق",
    "name_en": "Firuraq",
    "province": {
      "province_id": 2,
      "name_fa": "آذربایجان غربی",
      "name_en": "Western Azerbaijan"
    },
    "location": {
      "longitude": 44.8316495,
      "latitude": 38.5821035
    },
    "created_at": "2026-02-09T16:01:37.752805+00:00",
    "updated_at": "2026-02-09T16:01:37.752805+00:00"
  },
  {
    "city_id": 394,
    "name_fa": "لاجان",
    "name_en": "Gherdakshaneh",
    "province": {
      "province_id": 2,
      "name_fa": "آذربایجان غربی",
      "name_en": "Western Azerbaijan"
    },
    "location": {
      "longitude": 45.264528,
      "latitude": 36.8084866
    },
    "created_at": "2026-02-09T16:01:37.732792+00:00",
    "updated_at": "2026-02-09T16:01:37.732792+00:00"
  },
  {
    "city_id": 272,
    "name_fa": "ایواوغلی",
    "name_en": "Ivughli",
    "province": {
      "province_id": 2,
      "name_fa": "آذربایجان غربی",
      "name_en": "Western Azerbaijan"
    },
    "location": {
      "longitude": 45.206595,
      "latitude": 38.7139034
    },
    "created_at": "2026-02-09T16:01:36.800368+00:00",
    "updated_at": "2026-02-09T16:01:36.800368+00:00"
  },
  {
    "city_id": 396,
    "name_fa": "کشاورز",
    "name_en": "Keshavarz",
    "province": {
      "province_id": 2,
      "name_fa": "آذربایجان غربی",
      "name_en": "Western Azerbaijan"
    },
    "location": {
      "longitude": 46.3573777,
      "latitude": 36.8355495
    },
    "created_at": "2026-02-09T16:01:37.746818+00:00",
    "updated_at": "2026-02-09T16:01:37.746818+00:00"
  },
  {
    "city_id": 491,
    "name_fa": "کشمش تپه",
    "name_en": "Keshmesh Tappeh",
    "province": {
      "province_id": 2,
      "name_fa": "آذربایجان غربی",
      "name_en": "Western Azerbaijan"
    },
    "location": {
      "longitude": 44.39504,
      "latitude": 39.337925
    },
    "created_at": "2026-02-09T16:01:38.577019+00:00",
    "updated_at": "2026-02-09T16:01:38.577019+00:00"
  },
  {
    "city_id": 23,
    "name_fa": "خوی",
    "name_en": "Khoy",
    "province": {
      "province_id": 2,
      "name_fa": "آذربایجان غربی",
      "name_en": "Western Azerbaijan"
    },
    "location": {
      "longitude": 44.95354,
      "latitude": 38.5504343
    },
    "created_at": "2026-02-09T16:01:34.650178+00:00",
    "updated_at": "2026-02-09T16:01:34.650178+00:00"
  },
  {
    "city_id": 399,
    "name_fa": "ماکو",
    "name_en": "Maku",
    "province": {
      "province_id": 2,
      "name_fa": "آذربایجان غربی",
      "name_en": "Western Azerbaijan"
    },
    "location": {
      "longitude": 44.4521379,
      "latitude": 39.2909641
    },
    "created_at": "2026-02-09T16:01:37.765788+00:00",
    "updated_at": "2026-02-09T16:01:37.765788+00:00"
  },
  {
    "city_id": 475,
    "name_fa": "میاندوآب",
    "name_en": "Miandoab",
    "province": {
      "province_id": 2,
      "name_fa": "آذربایجان غربی",
      "name_en": "Western Azerbaijan"
    },
    "location": {
      "longitude": 46.0993809,
      "latitude": 36.9695588
    },
    "created_at": "2026-02-09T16:01:38.364066+00:00",
    "updated_at": "2026-02-09T16:01:38.364066+00:00"
  },
  {
    "city_id": 233,
    "name_fa": "محمدیار",
    "name_en": "Mohammadyar",
    "province": {
      "province_id": 2,
      "name_fa": "آذربایجان غربی",
      "name_en": "Western Azerbaijan"
    },
    "location": {
      "longitude": 45.5167584,
      "latitude": 36.9841837
    },
    "created_at": "2026-02-09T16:01:36.470204+00:00",
    "updated_at": "2026-02-09T16:01:36.470204+00:00"
  },
  {
    "city_id": 34,
    "name_fa": "اشنویه",
    "name_en": "Oshnaviyeh",
    "province": {
      "province_id": 2,
      "name_fa": "آذربایجان غربی",
      "name_en": "Western Azerbaijan"
    },
    "location": {
      "longitude": 45.0983499,
      "latitude": 37.0418235
    },
    "created_at": "2026-02-09T16:01:34.733383+00:00",
    "updated_at": "2026-02-09T16:01:34.733383+00:00"
  },
  {
    "city_id": 26,
    "name_fa": "قره ضیاءالدین",
    "name_en": "Qaraziadin",
    "province": {
      "province_id": 2,
      "name_fa": "آذربایجان غربی",
      "name_en": "Western Azerbaijan"
    },
    "location": {
      "longitude": 45.0282295,
      "latitude": 38.8900366
    },
    "created_at": "2026-02-09T16:01:34.671766+00:00",
    "updated_at": "2026-02-09T16:01:34.671766+00:00"
  },
  {
    "city_id": 494,
    "name_fa": "قطور",
    "name_en": "Qatur",
    "province": {
      "province_id": 2,
      "name_fa": "آذربایجان غربی",
      "name_en": "Western Azerbaijan"
    },
    "location": {
      "longitude": 44.4099457,
      "latitude": 38.4714718
    },
    "created_at": "2026-02-09T16:01:38.604025+00:00",
    "updated_at": "2026-02-09T16:01:38.604025+00:00"
  },
  {
    "city_id": 234,
    "name_fa": "قوشچی",
    "name_en": "Qushchi",
    "province": {
      "province_id": 2,
      "name_fa": "آذربایجان غربی",
      "name_en": "Western Azerbaijan"
    },
    "location": {
      "longitude": 45.0370956,
      "latitude": 37.9929508
    },
    "created_at": "2026-02-09T16:01:36.478198+00:00",
    "updated_at": "2026-02-09T16:01:36.478198+00:00"
  },
  {
    "city_id": 398,
    "name_fa": "ربط",
    "name_en": "Rabat",
    "province": {
      "province_id": 2,
      "name_fa": "آذربایجان غربی",
      "name_en": "Western Azerbaijan"
    },
    "location": {
      "longitude": 45.5542469,
      "latitude": 36.2092112
    },
    "created_at": "2026-02-09T16:01:37.758785+00:00",
    "updated_at": "2026-02-09T16:01:37.758785+00:00"
  },
  {
    "city_id": 27,
    "name_fa": "سلماس",
    "name_en": "Salmas",
    "province": {
      "province_id": 2,
      "name_fa": "آذربایجان غربی",
      "name_en": "Western Azerbaijan"
    },
    "location": {
      "longitude": 44.7685015,
      "latitude": 38.1969035
    },
    "created_at": "2026-02-09T16:01:34.679727+00:00",
    "updated_at": "2026-02-09T16:01:34.679727+00:00"
  },
  {
    "city_id": 83,
    "name_fa": "سردشت",
    "name_en": "Sardasht",
    "province": {
      "province_id": 2,
      "name_fa": "آذربایجان غربی",
      "name_en": "Western Azerbaijan"
    },
    "location": {
      "longitude": 45.4799637,
      "latitude": 36.1553184
    },
    "created_at": "2026-02-09T16:01:35.177281+00:00",
    "updated_at": "2026-02-09T16:01:35.177281+00:00"
  },
  {
    "city_id": 395,
    "name_fa": "شوط",
    "name_en": "Showt",
    "province": {
      "province_id": 2,
      "name_fa": "آذربایجان غربی",
      "name_en": "Western Azerbaijan"
    },
    "location": {
      "longitude": 44.7711898,
      "latitude": 39.2178874
    },
    "created_at": "2026-02-09T16:01:37.739787+00:00",
    "updated_at": "2026-02-09T16:01:37.739787+00:00"
  },
  {
    "city_id": 392,
    "name_fa": "سیلوانا",
    "name_en": "Silvaneh",
    "province": {
      "province_id": 2,
      "name_fa": "آذربایجان غربی",
      "name_en": "Western Azerbaijan"
    },
    "location": {
      "longitude": 44.8543213,
      "latitude": 37.4216528
    },
    "created_at": "2026-02-09T16:01:37.717805+00:00",
    "updated_at": "2026-02-09T16:01:37.717805+00:00"
  },
  {
    "city_id": 391,
    "name_fa": "سیمینه",
    "name_en": "Simineh",
    "province": {
      "province_id": 2,
      "name_fa": "آذربایجان غربی",
      "name_en": "Western Azerbaijan"
    },
    "location": {
      "longitude": 46.1534194,
      "latitude": 36.7303445
    },
    "created_at": "2026-02-09T16:01:37.710807+00:00",
    "updated_at": "2026-02-09T16:01:37.710807+00:00"
  },
  {
    "city_id": 30,
    "name_fa": "تیکان تپه",
    "name_en": "Takab",
    "province": {
      "province_id": 2,
      "name_fa": "آذربایجان غربی",
      "name_en": "Western Azerbaijan"
    },
    "location": {
      "longitude": 47.1117125,
      "latitude": 36.4007658
    },
    "created_at": "2026-02-09T16:01:34.703402+00:00",
    "updated_at": "2026-02-09T16:01:34.703402+00:00"
  },
  {
    "city_id": 121,
    "name_fa": "تازه شهر",
    "name_en": "Tazeh Shahr",
    "province": {
      "province_id": 2,
      "name_fa": "آذربایجان غربی",
      "name_en": "Western Azerbaijan"
    },
    "location": {
      "longitude": 44.6915009,
      "latitude": 38.1751182
    },
    "created_at": "2026-02-09T16:01:35.526656+00:00",
    "updated_at": "2026-02-09T16:01:35.526656+00:00"
  },
  {
    "city_id": 348,
    "name_fa": "آبی بیگلو",
    "name_en": "Abibiglou",
    "province": {
      "province_id": 3,
      "name_fa": "اردبیل",
      "name_en": "Ardabil"
    },
    "location": {
      "longitude": 48.5527012,
      "latitude": 38.28365
    },
    "created_at": "2026-02-09T16:01:37.397626+00:00",
    "updated_at": "2026-02-09T16:01:37.397626+00:00"
  },
  {
    "city_id": 347,
    "name_fa": "عنبران",
    "name_en": "Anbaran",
    "province": {
      "province_id": 3,
      "name_fa": "اردبیل",
      "name_en": "Ardabil"
    },
    "location": {
      "longitude": 48.4355097,
      "latitude": 38.4900003
    },
    "created_at": "2026-02-09T16:01:37.388617+00:00",
    "updated_at": "2026-02-09T16:01:37.388617+00:00"
  },
  {
    "city_id": 10,
    "name_fa": "اردبیل",
    "name_en": "Ardabil",
    "province": {
      "province_id": 3,
      "name_fa": "اردبیل",
      "name_en": "Ardabil"
    },
    "location": {
      "longitude": 48.2972269,
      "latitude": 38.2515581
    },
    "created_at": "2026-02-09T16:01:34.553393+00:00",
    "updated_at": "2026-02-09T16:01:34.553393+00:00"
  },
  {
    "city_id": 694,
    "name_fa": "اصلاندوز",
    "name_en": "Aslan Duz",
    "province": {
      "province_id": 3,
      "name_fa": "اردبیل",
      "name_en": "Ardabil"
    },
    "location": {
      "longitude": 47.4102145,
      "latitude": 39.4417175
    },
    "created_at": "2026-02-09T16:01:40.437141+00:00",
    "updated_at": "2026-02-09T16:01:40.437141+00:00"
  },
  {
    "city_id": 238,
    "name_fa": "بیله سوار",
    "name_en": "Bilasuvar",
    "province": {
      "province_id": 3,
      "name_fa": "اردبیل",
      "name_en": "Ardabil"
    },
    "location": {
      "longitude": 48.3499706,
      "latitude": 39.3779114
    },
    "created_at": "2026-02-09T16:01:36.510179+00:00",
    "updated_at": "2026-02-09T16:01:36.510179+00:00"
  },
  {
    "city_id": 521,
    "name_fa": "فیروزآباد",
    "name_en": "Firouzabad",
    "province": {
      "province_id": 3,
      "name_fa": "اردبیل",
      "name_en": "Ardabil"
    },
    "location": {
      "longitude": 48.2293142,
      "latitude": 37.5876447
    },
    "created_at": "2026-02-09T16:01:38.885495+00:00",
    "updated_at": "2026-02-09T16:01:38.885495+00:00"
  },
  {
    "city_id": 239,
    "name_fa": "گرمی",
    "name_en": "Germi",
    "province": {
      "province_id": 3,
      "name_fa": "اردبیل",
      "name_en": "Ardabil"
    },
    "location": {
      "longitude": 48.0800478,
      "latitude": 39.029223
    },
    "created_at": "2026-02-09T16:01:36.517129+00:00",
    "updated_at": "2026-02-09T16:01:36.517129+00:00"
  },
  {
    "city_id": 349,
    "name_fa": "هشجین",
    "name_en": "Hashjin",
    "province": {
      "province_id": 3,
      "name_fa": "اردبیل",
      "name_en": "Ardabil"
    },
    "location": {
      "longitude": 48.322197,
      "latitude": 37.369503
    },
    "created_at": "2026-02-09T16:01:37.404675+00:00",
    "updated_at": "2026-02-09T16:01:37.404675+00:00"
  },
  {
    "city_id": 350,
    "name_fa": "هیر",
    "name_en": "Hir",
    "province": {
      "province_id": 3,
      "name_fa": "اردبیل",
      "name_en": "Ardabil"
    },
    "location": {
      "longitude": 48.5065169,
      "latitude": 38.0801837
    },
    "created_at": "2026-02-09T16:01:37.412627+00:00",
    "updated_at": "2026-02-09T16:01:37.412627+00:00"
  },
  {
    "city_id": 352,
    "name_fa": "جعفر آباد",
    "name_en": "Jafarabad",
    "province": {
      "province_id": 3,
      "name_fa": "اردبیل",
      "name_en": "Ardabil"
    },
    "location": {
      "longitude": 48.0946149,
      "latitude": 39.4356852
    },
    "created_at": "2026-02-09T16:01:37.426642+00:00",
    "updated_at": "2026-02-09T16:01:37.426642+00:00"
  },
  {
    "city_id": 322,
    "name_fa": "خلخال",
    "name_en": "Khalkhal",
    "province": {
      "province_id": 3,
      "name_fa": "اردبیل",
      "name_en": "Ardabil"
    },
    "location": {
      "longitude": 48.5278144,
      "latitude": 37.6192217
    },
    "created_at": "2026-02-09T16:01:37.190266+00:00",
    "updated_at": "2026-02-09T16:01:37.190266+00:00"
  },
  {
    "city_id": 355,
    "name_fa": "کلور",
    "name_en": "Kolur",
    "province": {
      "province_id": 3,
      "name_fa": "اردبیل",
      "name_en": "Ardabil"
    },
    "location": {
      "longitude": 48.7221802,
      "latitude": 37.3889125
    },
    "created_at": "2026-02-09T16:01:37.446521+00:00",
    "updated_at": "2026-02-09T16:01:37.446521+00:00"
  },
  {
    "city_id": 345,
    "name_fa": "کوراییم",
    "name_en": "Kuraiem",
    "province": {
      "province_id": 3,
      "name_fa": "اردبیل",
      "name_en": "Ardabil"
    },
    "location": {
      "longitude": 48.2355776,
      "latitude": 37.9552413
    },
    "created_at": "2026-02-09T16:01:37.373552+00:00",
    "updated_at": "2026-02-09T16:01:37.373552+00:00"
  },
  {
    "city_id": 346,
    "name_fa": "لاهرود",
    "name_en": "Lahrud",
    "province": {
      "province_id": 3,
      "name_fa": "اردبیل",
      "name_en": "Ardabil"
    },
    "location": {
      "longitude": 47.8316745,
      "latitude": 38.5081222
    },
    "created_at": "2026-02-09T16:01:37.381568+00:00",
    "updated_at": "2026-02-09T16:01:37.381568+00:00"
  },
  {
    "city_id": 353,
    "name_fa": "نمین",
    "name_en": "Namin",
    "province": {
      "province_id": 3,
      "name_fa": "اردبیل",
      "name_en": "Ardabil"
    },
    "location": {
      "longitude": 48.4840477,
      "latitude": 38.4240161
    },
    "created_at": "2026-02-09T16:01:37.433501+00:00",
    "updated_at": "2026-02-09T16:01:37.433501+00:00"
  },
  {
    "city_id": 351,
    "name_fa": "نیر",
    "name_en": "Nir",
    "province": {
      "province_id": 3,
      "name_fa": "اردبیل",
      "name_en": "Ardabil"
    },
    "location": {
      "longitude": 47.9991069,
      "latitude": 38.034005
    },
    "created_at": "2026-02-09T16:01:37.419642+00:00",
    "updated_at": "2026-02-09T16:01:37.419642+00:00"
  },
  {
    "city_id": 516,
    "name_fa": "اولتان",
    "name_en": "Owltan",
    "province": {
      "province_id": 3,
      "name_fa": "اردبیل",
      "name_en": "Ardabil"
    },
    "location": {
      "longitude": 47.7690599,
      "latitude": 39.6058733
    },
    "created_at": "2026-02-09T16:01:38.834498+00:00",
    "updated_at": "2026-02-09T16:01:38.834498+00:00"
  },
  {
    "city_id": 32,
    "name_fa": "پارس آباد",
    "name_en": "Parsabad",
    "province": {
      "province_id": 3,
      "name_fa": "اردبیل",
      "name_en": "Ardabil"
    },
    "location": {
      "longitude": 47.918551,
      "latitude": 39.6461735
    },
    "created_at": "2026-02-09T16:01:34.717383+00:00",
    "updated_at": "2026-02-09T16:01:34.718383+00:00"
  },
  {
    "city_id": 354,
    "name_fa": "رضی",
    "name_en": "Razey",
    "province": {
      "province_id": 3,
      "name_fa": "اردبیل",
      "name_en": "Ardabil"
    },
    "location": {
      "longitude": 48.0956519,
      "latitude": 38.6296398
    },
    "created_at": "2026-02-09T16:01:37.440557+00:00",
    "updated_at": "2026-02-09T16:01:37.440557+00:00"
  },
  {
    "city_id": 661,
    "name_fa": "ثمرین",
    "name_en": "Samarin",
    "province": {
      "province_id": 3,
      "name_fa": "اردبیل",
      "name_en": "Ardabil"
    },
    "location": {
      "longitude": 48.1356863,
      "latitude": 38.3565743
    },
    "created_at": "2026-02-09T16:01:40.099054+00:00",
    "updated_at": "2026-02-09T16:01:40.099054+00:00"
  },
  {
    "city_id": 81,
    "name_fa": "سرعین",
    "name_en": "Sareyn",
    "province": {
      "province_id": 3,
      "name_fa": "اردبیل",
      "name_en": "Ardabil"
    },
    "location": {
      "longitude": 48.0746208,
      "latitude": 38.1493746
    },
    "created_at": "2026-02-09T16:01:35.160111+00:00",
    "updated_at": "2026-02-09T16:01:35.160111+00:00"
  },
  {
    "city_id": 563,
    "name_fa": "انگوت",
    "name_en": "Tazeh Kand-e Angut",
    "province": {
      "province_id": 3,
      "name_fa": "اردبیل",
      "name_en": "Ardabil"
    },
    "location": {
      "longitude": 47.7448756,
      "latitude": 39.045299
    },
    "created_at": "2026-02-09T16:01:39.324641+00:00",
    "updated_at": "2026-02-09T16:01:39.324641+00:00"
  },
  {
    "city_id": 662,
    "name_fa": "زیوه",
    "name_en": "زیوه",
    "province": {
      "province_id": 3,
      "name_fa": "اردبیل",
      "name_en": "Ardabil"
    },
    "location": {
      "longitude": 47.6506035,
      "latitude": 39.1232787
    },
    "created_at": "2026-02-09T16:01:40.107051+00:00",
    "updated_at": "2026-02-09T16:01:40.107051+00:00"
  },
  {
    "city_id": 210,
    "name_fa": "ابریشم",
    "name_en": "Abrisham",
    "province": {
      "province_id": 4,
      "name_fa": "اصفهان",
      "name_en": "Esfahan"
    },
    "location": {
      "longitude": 51.5712769,
      "latitude": 32.5697615
    },
    "created_at": "2026-02-09T16:01:36.280106+00:00",
    "updated_at": "2026-02-09T16:01:36.280106+00:00"
  },
  {
    "city_id": 418,
    "name_fa": "افوس",
    "name_en": "Afus",
    "province": {
      "province_id": 4,
      "name_fa": "اصفهان",
      "name_en": "Esfahan"
    },
    "location": {
      "longitude": 50.0929526,
      "latitude": 33.0240732
    },
    "created_at": "2026-02-09T16:01:37.922894+00:00",
    "updated_at": "2026-02-09T16:01:37.922894+00:00"
  },
  {
    "city_id": 197,
    "name_fa": "علویجه",
    "name_en": "Alavijeh",
    "province": {
      "province_id": 4,
      "name_fa": "اصفهان",
      "name_en": "Esfahan"
    },
    "location": {
      "longitude": 51.0845672,
      "latitude": 33.0560985
    },
    "created_at": "2026-02-09T16:01:36.169205+00:00",
    "updated_at": "2026-02-09T16:01:36.169205+00:00"
  },
  {
    "city_id": 199,
    "name_fa": "عسگران",
    "name_en": "Asgaran",
    "province": {
      "province_id": 4,
      "name_fa": "اصفهان",
      "name_en": "Esfahan"
    },
    "location": {
      "longitude": 50.8517144,
      "latitude": 32.8646215
    },
    "created_at": "2026-02-09T16:01:36.184197+00:00",
    "updated_at": "2026-02-09T16:01:36.184197+00:00"
  },
  {
    "city_id": 557,
    "name_fa": "اصغرآباد",
    "name_en": "Asgharabad",
    "province": {
      "province_id": 4,
      "name_fa": "اصفهان",
      "name_en": "Esfahan"
    },
    "location": {
      "longitude": 51.4838278,
      "latitude": 32.6516875
    },
    "created_at": "2026-02-09T16:01:39.271641+00:00",
    "updated_at": "2026-02-09T16:01:39.271641+00:00"
  },
  {
    "city_id": 56,
    "name_fa": "بادرود",
    "name_en": "Badrud",
    "province": {
      "province_id": 4,
      "name_fa": "اصفهان",
      "name_en": "Esfahan"
    },
    "location": {
      "longitude": 52.0076895,
      "latitude": 33.6916541
    },
    "created_at": "2026-02-09T16:01:34.941877+00:00",
    "updated_at": "2026-02-09T16:01:34.941877+00:00"
  },
  {
    "city_id": 484,
    "name_fa": "باغشاد",
    "name_en": "Baghshad",
    "province": {
      "province_id": 4,
      "name_fa": "اصفهان",
      "name_en": "Esfahan"
    },
    "location": {
      "longitude": 51.2325317,
      "latitude": 32.3837155
    },
    "created_at": "2026-02-09T16:01:38.482556+00:00",
    "updated_at": "2026-02-09T16:01:38.482556+00:00"
  },
  {
    "city_id": 198,
    "name_fa": "باغ بهادران",
    "name_en": "Baq Bahadoran",
    "province": {
      "province_id": 4,
      "name_fa": "اصفهان",
      "name_en": "Esfahan"
    },
    "location": {
      "longitude": 51.1890059,
      "latitude": 32.3762181
    },
    "created_at": "2026-02-09T16:01:36.177203+00:00",
    "updated_at": "2026-02-09T16:01:36.177203+00:00"
  },
  {
    "city_id": 558,
    "name_fa": "بیده",
    "name_en": "Bideh",
    "province": {
      "province_id": 4,
      "name_fa": "اصفهان",
      "name_en": "Esfahan"
    },
    "location": {
      "longitude": 51.6517419,
      "latitude": 30.9469408
    },
    "created_at": "2026-02-09T16:01:39.279621+00:00",
    "updated_at": "2026-02-09T16:01:39.279621+00:00"
  },
  {
    "city_id": 497,
    "name_fa": "بوئین و میاندشت",
    "name_en": "Buin and Miandasht",
    "province": {
      "province_id": 4,
      "name_fa": "اصفهان",
      "name_en": "Esfahan"
    },
    "location": {
      "longitude": 50.1598427,
      "latitude": 33.0805194
    },
    "created_at": "2026-02-09T16:01:38.677463+00:00",
    "updated_at": "2026-02-09T16:01:38.677463+00:00"
  },
  {
    "city_id": 664,
    "name_fa": "چادگان",
    "name_en": "Chadegan",
    "province": {
      "province_id": 4,
      "name_fa": "اصفهان",
      "name_en": "Esfahan"
    },
    "location": {
      "longitude": 50.6290648,
      "latitude": 32.7679417
    },
    "created_at": "2026-02-09T16:01:40.121051+00:00",
    "updated_at": "2026-02-09T16:01:40.121051+00:00"
  },
  {
    "city_id": 196,
    "name_fa": "چمگردان",
    "name_en": "Chamgordan",
    "province": {
      "province_id": 4,
      "name_fa": "اصفهان",
      "name_en": "Esfahan"
    },
    "location": {
      "longitude": 51.338919,
      "latitude": 32.393093
    },
    "created_at": "2026-02-09T16:01:36.158865+00:00",
    "updated_at": "2026-02-09T16:01:36.158865+00:00"
  },
  {
    "city_id": 192,
    "name_fa": "چرمهین",
    "name_en": "Chermahin",
    "province": {
      "province_id": 4,
      "name_fa": "اصفهان",
      "name_en": "Esfahan"
    },
    "location": {
      "longitude": 51.1898097,
      "latitude": 32.3333972
    },
    "created_at": "2026-02-09T16:01:36.126578+00:00",
    "updated_at": "2026-02-09T16:01:36.126578+00:00"
  },
  {
    "city_id": 400,
    "name_fa": "دامنه",
    "name_en": "Damaneh",
    "province": {
      "province_id": 4,
      "name_fa": "اصفهان",
      "name_en": "Esfahan"
    },
    "location": {
      "longitude": 50.4893488,
      "latitude": 33.0178599
    },
    "created_at": "2026-02-09T16:01:37.774923+00:00",
    "updated_at": "2026-02-09T16:01:37.774923+00:00"
  },
  {
    "city_id": 293,
    "name_fa": "داران",
    "name_en": "Daran",
    "province": {
      "province_id": 4,
      "name_fa": "اصفهان",
      "name_en": "Esfahan"
    },
    "location": {
      "longitude": 50.4138667,
      "latitude": 32.9865555
    },
    "created_at": "2026-02-09T16:01:36.960131+00:00",
    "updated_at": "2026-02-09T16:01:36.960131+00:00"
  },
  {
    "city_id": 208,
    "name_fa": "دستگرد",
    "name_en": "Dastgerd",
    "province": {
      "province_id": 4,
      "name_fa": "اصفهان",
      "name_en": "Esfahan"
    },
    "location": {
      "longitude": 51.6640173,
      "latitude": 32.8015531
    },
    "created_at": "2026-02-09T16:01:36.258885+00:00",
    "updated_at": "2026-02-09T16:01:36.258885+00:00"
  },
  {
    "city_id": 195,
    "name_fa": "دهق",
    "name_en": "Dehagh",
    "province": {
      "province_id": 4,
      "name_fa": "اصفهان",
      "name_en": "Esfahan"
    },
    "location": {
      "longitude": 50.9629781,
      "latitude": 33.1049536
    },
    "created_at": "2026-02-09T16:01:36.150950+00:00",
    "updated_at": "2026-02-09T16:01:36.150950+00:00"
  },
  {
    "city_id": 209,
    "name_fa": "دهاقان",
    "name_en": "Dehaqan",
    "province": {
      "province_id": 4,
      "name_fa": "اصفهان",
      "name_en": "Esfahan"
    },
    "location": {
      "longitude": 51.6471146,
      "latitude": 31.9367339
    },
    "created_at": "2026-02-09T16:01:36.272747+00:00",
    "updated_at": "2026-02-09T16:01:36.272747+00:00"
  },
  {
    "city_id": 518,
    "name_fa": "دهسرخ",
    "name_en": "Dehsorkh",
    "province": {
      "province_id": 4,
      "name_fa": "اصفهان",
      "name_en": "Esfahan"
    },
    "location": {
      "longitude": 51.6674027,
      "latitude": 32.4102723
    },
    "created_at": "2026-02-09T16:01:38.849492+00:00",
    "updated_at": "2026-02-09T16:01:38.849492+00:00"
  },
  {
    "city_id": 193,
    "name_fa": "دیزیچه",
    "name_en": "Dizicheh",
    "province": {
      "province_id": 4,
      "name_fa": "اصفهان",
      "name_en": "Esfahan"
    },
    "location": {
      "longitude": 51.5128444,
      "latitude": 32.3829496
    },
    "created_at": "2026-02-09T16:01:36.135637+00:00",
    "updated_at": "2026-02-09T16:01:36.135637+00:00"
  },
  {
    "city_id": 684,
    "name_fa": "درچه",
    "name_en": "Dorcheh",
    "province": {
      "province_id": 4,
      "name_fa": "اصفهان",
      "name_en": "Esfahan"
    },
    "location": {
      "longitude": 51.5560012,
      "latitude": 32.6171666
    },
    "created_at": "2026-02-09T16:01:40.279254+00:00",
    "updated_at": "2026-02-09T16:01:40.279254+00:00"
  },
  {
    "city_id": 222,
    "name_fa": "اژیه",
    "name_en": "Ezhieh",
    "province": {
      "province_id": 4,
      "name_fa": "اصفهان",
      "name_en": "Esfahan"
    },
    "location": {
      "longitude": 52.3789114,
      "latitude": 32.4400685
    },
    "created_at": "2026-02-09T16:01:36.370520+00:00",
    "updated_at": "2026-02-09T16:01:36.370520+00:00"
  },
  {
    "city_id": 201,
    "name_fa": "فلاورجان",
    "name_en": "Falavarjan",
    "province": {
      "province_id": 4,
      "name_fa": "اصفهان",
      "name_en": "Esfahan"
    },
    "location": {
      "longitude": 51.5079153,
      "latitude": 32.5576772
    },
    "created_at": "2026-02-09T16:01:36.199823+00:00",
    "updated_at": "2026-02-09T16:01:36.199823+00:00"
  },
  {
    "city_id": 40,
    "name_fa": "فرخی",
    "name_en": "Farokhi",
    "province": {
      "province_id": 4,
      "name_fa": "اصفهان",
      "name_en": "Esfahan"
    },
    "location": {
      "longitude": 54.9470758,
      "latitude": 33.844903
    },
    "created_at": "2026-02-09T16:01:34.797800+00:00",
    "updated_at": "2026-02-09T16:01:34.797800+00:00"
  },
  {
    "city_id": 560,
    "name_fa": "فتح آباد",
    "name_en": "Fathabad",
    "province": {
      "province_id": 4,
      "name_fa": "اصفهان",
      "name_en": "Esfahan"
    },
    "location": {
      "longitude": 51.5426261,
      "latitude": 31.6020835
    },
    "created_at": "2026-02-09T16:01:39.293640+00:00",
    "updated_at": "2026-02-09T16:01:39.293640+00:00"
  },
  {
    "city_id": 211,
    "name_fa": "گز برخوار",
    "name_en": "Gaz Borkhar",
    "province": {
      "province_id": 4,
      "name_fa": "اصفهان",
      "name_en": "Esfahan"
    },
    "location": {
      "longitude": 51.6168226,
      "latitude": 32.8062144
    },
    "created_at": "2026-02-09T16:01:36.286107+00:00",
    "updated_at": "2026-02-09T16:01:36.286107+00:00"
  },
  {
    "city_id": 531,
    "name_fa": "قلعه نو",
    "name_en": "Ghale Nou",
    "province": {
      "province_id": 4,
      "name_fa": "اصفهان",
      "name_en": "Esfahan"
    },
    "location": {
      "longitude": 51.9777047,
      "latitude": 33.7052326
    },
    "created_at": "2026-02-09T16:01:38.996511+00:00",
    "updated_at": "2026-02-09T16:01:38.996511+00:00"
  },
  {
    "city_id": 205,
    "name_fa": "گلدشت",
    "name_en": "Goldasht",
    "province": {
      "province_id": 4,
      "name_fa": "اصفهان",
      "name_en": "Esfahan"
    },
    "location": {
      "longitude": 51.4391574,
      "latitude": 32.6247941
    },
    "created_at": "2026-02-09T16:01:36.235755+00:00",
    "updated_at": "2026-02-09T16:01:36.235755+00:00"
  },
  {
    "city_id": 220,
    "name_fa": "گلپایگان",
    "name_en": "Golpayegan",
    "province": {
      "province_id": 4,
      "name_fa": "اصفهان",
      "name_en": "Esfahan"
    },
    "location": {
      "longitude": 50.2883303,
      "latitude": 33.456488
    },
    "created_at": "2026-02-09T16:01:36.352950+00:00",
    "updated_at": "2026-02-09T16:01:36.352950+00:00"
  },
  {
    "city_id": 495,
    "name_fa": "گلشهر",
    "name_en": "Golshahr",
    "province": {
      "province_id": 4,
      "name_fa": "اصفهان",
      "name_en": "Esfahan"
    },
    "location": {
      "longitude": 50.4754975,
      "latitude": 33.5130447
    },
    "created_at": "2026-02-09T16:01:38.650060+00:00",
    "updated_at": "2026-02-09T16:01:38.650060+00:00"
  },
  {
    "city_id": 436,
    "name_fa": "گلشن",
    "name_en": "Golshan",
    "province": {
      "province_id": 4,
      "name_fa": "اصفهان",
      "name_en": "Esfahan"
    },
    "location": {
      "longitude": 51.752294,
      "latitude": 31.9354578
    },
    "created_at": "2026-02-09T16:01:38.079034+00:00",
    "updated_at": "2026-02-09T16:01:38.079034+00:00"
  },
  {
    "city_id": 490,
    "name_fa": "گرگاب",
    "name_en": "Gorgab",
    "province": {
      "province_id": 4,
      "name_fa": "اصفهان",
      "name_en": "Esfahan"
    },
    "location": {
      "longitude": 51.5981358,
      "latitude": 32.8678119
    },
    "created_at": "2026-02-09T16:01:38.559588+00:00",
    "updated_at": "2026-02-09T16:01:38.559588+00:00"
  },
  {
    "city_id": 218,
    "name_fa": "گوگد",
    "name_en": "Guged",
    "province": {
      "province_id": 4,
      "name_fa": "اصفهان",
      "name_en": "Esfahan"
    },
    "location": {
      "longitude": 50.3554565,
      "latitude": 33.4755802
    },
    "created_at": "2026-02-09T16:01:36.336712+00:00",
    "updated_at": "2026-02-09T16:01:36.336712+00:00"
  },
  {
    "city_id": 206,
    "name_fa": "حبیب آباد",
    "name_en": "Habibabad",
    "province": {
      "province_id": 4,
      "name_fa": "اصفهان",
      "name_en": "Esfahan"
    },
    "location": {
      "longitude": 51.7757315,
      "latitude": 32.8276538
    },
    "created_at": "2026-02-09T16:01:36.242754+00:00",
    "updated_at": "2026-02-09T16:01:36.242754+00:00"
  },
  {
    "city_id": 215,
    "name_fa": "هرند",
    "name_en": "Harand",
    "province": {
      "province_id": 4,
      "name_fa": "اصفهان",
      "name_en": "Esfahan"
    },
    "location": {
      "longitude": 52.4355327,
      "latitude": 32.5625906
    },
    "created_at": "2026-02-09T16:01:36.311073+00:00",
    "updated_at": "2026-02-09T16:01:36.311073+00:00"
  },
  {
    "city_id": 219,
    "name_fa": "حسن آباد",
    "name_en": "Hasanabad",
    "province": {
      "province_id": 4,
      "name_fa": "اصفهان",
      "name_en": "Esfahan"
    },
    "location": {
      "longitude": 52.6278545,
      "latitude": 32.1402808
    },
    "created_at": "2026-02-09T16:01:36.345928+00:00",
    "updated_at": "2026-02-09T16:01:36.345928+00:00"
  },
  {
    "city_id": 485,
    "name_fa": "ایمان شهر",
    "name_en": "Iman Shahr",
    "province": {
      "province_id": 4,
      "name_fa": "اصفهان",
      "name_en": "Esfahan"
    },
    "location": {
      "longitude": 51.4469528,
      "latitude": 32.4881597
    },
    "created_at": "2026-02-09T16:01:38.489541+00:00",
    "updated_at": "2026-02-09T16:01:38.489541+00:00"
  },
  {
    "city_id": 2,
    "name_fa": "اصفهان",
    "name_en": "Isfahan",
    "province": {
      "province_id": 4,
      "name_fa": "اصفهان",
      "name_en": "Esfahan"
    },
    "location": {
      "longitude": 51.6650002,
      "latitude": 32.6707877
    },
    "created_at": "2026-02-09T16:01:34.489191+00:00",
    "updated_at": "2026-02-09T16:01:34.489191+00:00"
  },
  {
    "city_id": 4,
    "name_fa": "جندق",
    "name_en": "Jandaq",
    "province": {
      "province_id": 4,
      "name_fa": "اصفهان",
      "name_en": "Esfahan"
    },
    "location": {
      "longitude": 54.4150165,
      "latitude": 34.0422837
    },
    "created_at": "2026-02-09T16:01:34.504654+00:00",
    "updated_at": "2026-02-09T16:01:34.504654+00:00"
  },
  {
    "city_id": 522,
    "name_fa": "جوشقان قالی",
    "name_en": "Jowsheqan-e Qali",
    "province": {
      "province_id": 4,
      "name_fa": "اصفهان",
      "name_en": "Esfahan"
    },
    "location": {
      "longitude": 51.212541,
      "latitude": 33.5908206
    },
    "created_at": "2026-02-09T16:01:38.900493+00:00",
    "updated_at": "2026-02-09T16:01:38.900493+00:00"
  },
  {
    "city_id": 487,
    "name_fa": "جوزدان",
    "name_en": "Jowzdan",
    "province": {
      "province_id": 4,
      "name_fa": "اصفهان",
      "name_en": "Esfahan"
    },
    "location": {
      "longitude": 51.3714526,
      "latitude": 32.5566297
    },
    "created_at": "2026-02-09T16:01:38.518557+00:00",
    "updated_at": "2026-02-09T16:01:38.518557+00:00"
  },
  {
    "city_id": 181,
    "name_fa": "کرکوند",
    "name_en": "Karkevand",
    "province": {
      "province_id": 4,
      "name_fa": "اصفهان",
      "name_en": "Esfahan"
    },
    "location": {
      "longitude": 51.4473626,
      "latitude": 32.3460971
    },
    "created_at": "2026-02-09T16:01:36.032493+00:00",
    "updated_at": "2026-02-09T16:01:36.032493+00:00"
  },
  {
    "city_id": 207,
    "name_fa": "کلیشاد و سودرجان",
    "name_en": "Kelishad and Sudarjan",
    "province": {
      "province_id": 4,
      "name_fa": "اصفهان",
      "name_en": "Esfahan"
    },
    "location": {
      "longitude": 51.5329463,
      "latitude": 32.5476802
    },
    "created_at": "2026-02-09T16:01:36.252893+00:00",
    "updated_at": "2026-02-09T16:01:36.252893+00:00"
  },
  {
    "city_id": 223,
    "name_fa": "خوانسار",
    "name_en": "Khansar",
    "province": {
      "province_id": 4,
      "name_fa": "اصفهان",
      "name_en": "Esfahan"
    },
    "location": {
      "longitude": 50.3146044,
      "latitude": 33.22692
    },
    "created_at": "2026-02-09T16:01:36.378725+00:00",
    "updated_at": "2026-02-09T16:01:36.378725+00:00"
  },
  {
    "city_id": 438,
    "name_fa": "خور",
    "name_en": "Khur",
    "province": {
      "province_id": 4,
      "name_fa": "اصفهان",
      "name_en": "Esfahan"
    },
    "location": {
      "longitude": 55.0828304,
      "latitude": 33.7761331
    },
    "created_at": "2026-02-09T16:01:38.097985+00:00",
    "updated_at": "2026-02-09T16:01:38.097985+00:00"
  },
  {
    "city_id": 561,
    "name_fa": "کمشچه",
    "name_en": "Komeshcheh",
    "province": {
      "province_id": 4,
      "name_fa": "اصفهان",
      "name_en": "Esfahan"
    },
    "location": {
      "longitude": 51.809343,
      "latitude": 32.9055468
    },
    "created_at": "2026-02-09T16:01:39.301655+00:00",
    "updated_at": "2026-02-09T16:01:39.301655+00:00"
  },
  {
    "city_id": 221,
    "name_fa": "کوهپایه",
    "name_en": "Koohpayeh",
    "province": {
      "province_id": 4,
      "name_fa": "اصفهان",
      "name_en": "Esfahan"
    },
    "location": {
      "longitude": 52.4405045,
      "latitude": 32.7138321
    },
    "created_at": "2026-02-09T16:01:36.363843+00:00",
    "updated_at": "2026-02-09T16:01:36.363843+00:00"
  },
  {
    "city_id": 212,
    "name_fa": "کوشک",
    "name_en": "Kushk",
    "province": {
      "province_id": 4,
      "name_fa": "اصفهان",
      "name_en": "Esfahan"
    },
    "location": {
      "longitude": 51.5004056,
      "latitude": 32.6391832
    },
    "created_at": "2026-02-09T16:01:36.293108+00:00",
    "updated_at": "2026-02-09T16:01:36.293108+00:00"
  },
  {
    "city_id": 489,
    "name_fa": "لای بید",
    "name_en": "Lay Bid",
    "province": {
      "province_id": 4,
      "name_fa": "اصفهان",
      "name_en": "Esfahan"
    },
    "location": {
      "longitude": 50.6952181,
      "latitude": 33.4620923
    },
    "created_at": "2026-02-09T16:01:38.539058+00:00",
    "updated_at": "2026-02-09T16:01:38.539058+00:00"
  },
  {
    "city_id": 685,
    "name_fa": "شهر مجلسی",
    "name_en": "Majlesi",
    "province": {
      "province_id": 4,
      "name_fa": "اصفهان",
      "name_en": "Esfahan"
    },
    "location": {
      "longitude": 51.4992826,
      "latitude": 32.1980788
    },
    "created_at": "2026-02-09T16:01:40.334249+00:00",
    "updated_at": "2026-02-09T16:01:40.334249+00:00"
  },
  {
    "city_id": 500,
    "name_fa": "میمه",
    "name_en": "Meymeh",
    "province": {
      "province_id": 4,
      "name_fa": "اصفهان",
      "name_en": "Esfahan"
    },
    "location": {
      "longitude": 51.1733569,
      "latitude": 33.4467299
    },
    "created_at": "2026-02-09T16:01:38.703418+00:00",
    "updated_at": "2026-02-09T16:01:38.703418+00:00"
  },
  {
    "city_id": 180,
    "name_fa": "مبارکه",
    "name_en": "Mobarakeh",
    "province": {
      "province_id": 4,
      "name_fa": "اصفهان",
      "name_en": "Esfahan"
    },
    "location": {
      "longitude": 51.5046633,
      "latitude": 32.3424135
    },
    "created_at": "2026-02-09T16:01:36.023477+00:00",
    "updated_at": "2026-02-09T16:01:36.023477+00:00"
  },
  {
    "city_id": 203,
    "name_fa": "محمدآباد",
    "name_en": "Mohammadabad",
    "province": {
      "province_id": 4,
      "name_fa": "اصفهان",
      "name_en": "Esfahan"
    },
    "location": {
      "longitude": 52.1110092,
      "latitude": 32.3250781
    },
    "created_at": "2026-02-09T16:01:36.218380+00:00",
    "updated_at": "2026-02-09T16:01:36.218380+00:00"
  },
  {
    "city_id": 213,
    "name_fa": "نصرآباد",
    "name_en": "Nasrabad",
    "province": {
      "province_id": 4,
      "name_fa": "اصفهان",
      "name_en": "Esfahan"
    },
    "location": {
      "longitude": 52.0600418,
      "latitude": 32.2792223
    },
    "created_at": "2026-02-09T16:01:36.298887+00:00",
    "updated_at": "2026-02-09T16:01:36.298887+00:00"
  },
  {
    "city_id": 214,
    "name_fa": "نیک آباد",
    "name_en": "Nikabad",
    "province": {
      "province_id": 4,
      "name_fa": "اصفهان",
      "name_en": "Esfahan"
    },
    "location": {
      "longitude": 52.2032026,
      "latitude": 32.3041598
    },
    "created_at": "2026-02-09T16:01:36.304076+00:00",
    "updated_at": "2026-02-09T16:01:36.304076+00:00"
  },
  {
    "city_id": 204,
    "name_fa": "پیربکران",
    "name_en": "Pir Bakran",
    "province": {
      "province_id": 4,
      "name_fa": "اصفهان",
      "name_en": "Esfahan"
    },
    "location": {
      "longitude": 51.5595521,
      "latitude": 32.468331
    },
    "created_at": "2026-02-09T16:01:36.224782+00:00",
    "updated_at": "2026-02-09T16:01:36.225758+00:00"
  },
  {
    "city_id": 202,
    "name_fa": "قهدریجان",
    "name_en": "Qahderijan",
    "province": {
      "province_id": 4,
      "name_fa": "اصفهان",
      "name_en": "Esfahan"
    },
    "location": {
      "longitude": 51.4539164,
      "latitude": 32.577126
    },
    "created_at": "2026-02-09T16:01:36.209313+00:00",
    "updated_at": "2026-02-09T16:01:36.209313+00:00"
  },
  {
    "city_id": 533,
    "name_fa": "قهجاورستان",
    "name_en": "Qahjavarestan",
    "province": {
      "province_id": 4,
      "name_fa": "اصفهان",
      "name_en": "Esfahan"
    },
    "location": {
      "longitude": 51.8330476,
      "latitude": 32.7040579
    },
    "created_at": "2026-02-09T16:01:39.032511+00:00",
    "updated_at": "2026-02-09T16:01:39.032511+00:00"
  },
  {
    "city_id": 528,
    "name_fa": "رامشه",
    "name_en": "Ramsheh",
    "province": {
      "province_id": 4,
      "name_fa": "اصفهان",
      "name_en": "Esfahan"
    },
    "location": {
      "longitude": 52.4970566,
      "latitude": 31.8223604
    },
    "created_at": "2026-02-09T16:01:38.958491+00:00",
    "updated_at": "2026-02-09T16:01:38.958491+00:00"
  },
  {
    "city_id": 85,
    "name_fa": "رضوانشهر",
    "name_en": "Rezvanshahr",
    "province": {
      "province_id": 4,
      "name_fa": "اصفهان",
      "name_en": "Esfahan"
    },
    "location": {
      "longitude": 51.104972,
      "latitude": 32.7031948
    },
    "created_at": "2026-02-09T16:01:35.192680+00:00",
    "updated_at": "2026-02-09T16:01:35.192680+00:00"
  },
  {
    "city_id": 434,
    "name_fa": "رزوه",
    "name_en": "Rozveh",
    "province": {
      "province_id": 4,
      "name_fa": "اصفهان",
      "name_en": "Esfahan"
    },
    "location": {
      "longitude": 50.5673592,
      "latitude": 32.8349784
    },
    "created_at": "2026-02-09T16:01:38.066641+00:00",
    "updated_at": "2026-02-09T16:01:38.066641+00:00"
  },
  {
    "city_id": 488,
    "name_fa": "سعید آباد",
    "name_en": "Said Abad",
    "province": {
      "province_id": 4,
      "name_fa": "اصفهان",
      "name_en": "Esfahan"
    },
    "location": {
      "longitude": 50.3203988,
      "latitude": 33.5288003
    },
    "created_at": "2026-02-09T16:01:38.532551+00:00",
    "updated_at": "2026-02-09T16:01:38.532551+00:00"
  },
  {
    "city_id": 200,
    "name_fa": "سده لنجان",
    "name_en": "Sedeh Lanjan",
    "province": {
      "province_id": 4,
      "name_fa": "اصفهان",
      "name_en": "Esfahan"
    },
    "location": {
      "longitude": 51.3148844,
      "latitude": 32.3783604
    },
    "created_at": "2026-02-09T16:01:36.192334+00:00",
    "updated_at": "2026-02-09T16:01:36.192334+00:00"
  },
  {
    "city_id": 216,
    "name_fa": "سجزی",
    "name_en": "Sejzi",
    "province": {
      "province_id": 4,
      "name_fa": "اصفهان",
      "name_en": "Esfahan"
    },
    "location": {
      "longitude": 52.1254256,
      "latitude": 32.6900849
    },
    "created_at": "2026-02-09T16:01:36.318520+00:00",
    "updated_at": "2026-02-09T16:01:36.318520+00:00"
  },
  {
    "city_id": 499,
    "name_fa": "سپاهان شهر",
    "name_en": "Sepahan Shahr",
    "province": {
      "province_id": 4,
      "name_fa": "اصفهان",
      "name_en": "Esfahan"
    },
    "location": {
      "longitude": 51.6741091,
      "latitude": 32.5507746
    },
    "created_at": "2026-02-09T16:01:38.695375+00:00",
    "updated_at": "2026-02-09T16:01:38.695375+00:00"
  },
  {
    "city_id": 559,
    "name_fa": "شاپورآباد",
    "name_en": "Shahpurabad",
    "province": {
      "province_id": 4,
      "name_fa": "اصفهان",
      "name_en": "Esfahan"
    },
    "location": {
      "longitude": 51.744414,
      "latitude": 32.8438053
    },
    "created_at": "2026-02-09T16:01:39.286624+00:00",
    "updated_at": "2026-02-09T16:01:39.286624+00:00"
  },
  {
    "city_id": 707,
    "name_fa": "شهرک سیمرغ",
    "name_en": "Simorgh Town",
    "province": {
      "province_id": 4,
      "name_fa": "اصفهان",
      "name_en": "Esfahan"
    },
    "location": {
      "longitude": 51.6315177,
      "latitude": 32.7792545
    },
    "created_at": "2026-02-09T16:01:40.620467+00:00",
    "updated_at": "2026-02-09T16:01:40.620467+00:00"
  },
  {
    "city_id": 534,
    "name_fa": "سین",
    "name_en": "Sin",
    "province": {
      "province_id": 4,
      "name_fa": "اصفهان",
      "name_en": "Esfahan"
    },
    "location": {
      "longitude": 51.6563384,
      "latitude": 32.8536719
    },
    "created_at": "2026-02-09T16:01:39.039511+00:00",
    "updated_at": "2026-02-09T16:01:39.039511+00:00"
  },
  {
    "city_id": 67,
    "name_fa": "طالخونچه",
    "name_en": "Talkhuncheh",
    "province": {
      "province_id": 4,
      "name_fa": "اصفهان",
      "name_en": "Esfahan"
    },
    "location": {
      "longitude": 51.5639295,
      "latitude": 32.2661882
    },
    "created_at": "2026-02-09T16:01:35.047362+00:00",
    "updated_at": "2026-02-09T16:01:35.047362+00:00"
  },
  {
    "city_id": 194,
    "name_fa": "ورنامخواست",
    "name_en": "Varnamkhast",
    "province": {
      "province_id": 4,
      "name_fa": "اصفهان",
      "name_en": "Esfahan"
    },
    "location": {
      "longitude": 51.3787538,
      "latitude": 32.3589117
    },
    "created_at": "2026-02-09T16:01:36.143865+00:00",
    "updated_at": "2026-02-09T16:01:36.143865+00:00"
  },
  {
    "city_id": 217,
    "name_fa": "ورزنه",
    "name_en": "Varzaneh",
    "province": {
      "province_id": 4,
      "name_fa": "اصفهان",
      "name_en": "Esfahan"
    },
    "location": {
      "longitude": 52.6486815,
      "latitude": 32.4203632
    },
    "created_at": "2026-02-09T16:01:36.327035+00:00",
    "updated_at": "2026-02-09T16:01:36.327035+00:00"
  },
  {
    "city_id": 577,
    "name_fa": "زرین شهر",
    "name_en": "Zarrinshahr",
    "province": {
      "province_id": 4,
      "name_fa": "اصفهان",
      "name_en": "Esfahan"
    },
    "location": {
      "longitude": 51.3737142,
      "latitude": 32.3887062
    },
    "created_at": "2026-02-09T16:01:39.444565+00:00",
    "updated_at": "2026-02-09T16:01:39.444565+00:00"
  },
  {
    "city_id": 701,
    "name_fa": "زاینده رود",
    "name_en": "Zayandeh Rud",
    "province": {
      "province_id": 4,
      "name_fa": "اصفهان",
      "name_en": "Esfahan"
    },
    "location": {
      "longitude": 51.269889,
      "latitude": 32.3880514
    },
    "created_at": "2026-02-09T16:01:40.547464+00:00",
    "updated_at": "2026-02-09T16:01:40.547464+00:00"
  },
  {
    "city_id": 541,
    "name_fa": "زیار",
    "name_en": "Ziar",
    "province": {
      "province_id": 4,
      "name_fa": "اصفهان",
      "name_en": "Esfahan"
    },
    "location": {
      "longitude": 51.9378864,
      "latitude": 32.5094459
    },
    "created_at": "2026-02-09T16:01:39.151625+00:00",
    "updated_at": "2026-02-09T16:01:39.151625+00:00"
  },
  {
    "city_id": 525,
    "name_fa": "اشیان",
    "name_en": "اشیان",
    "province": {
      "province_id": 4,
      "name_fa": "اصفهان",
      "name_en": "Esfahan"
    },
    "location": {
      "longitude": 51.4122081,
      "latitude": 32.3547744
    },
    "created_at": "2026-02-09T16:01:38.924657+00:00",
    "updated_at": "2026-02-09T16:01:38.924657+00:00"
  },
  {
    "city_id": 527,
    "name_fa": "سورچه بالا",
    "name_en": "سورچه بالا",
    "province": {
      "province_id": 4,
      "name_fa": "اصفهان",
      "name_en": "Esfahan"
    },
    "location": {
      "longitude": 51.4164789,
      "latitude": 32.3362994
    },
    "created_at": "2026-02-09T16:01:38.939567+00:00",
    "updated_at": "2026-02-09T16:01:38.939567+00:00"
  },
  {
    "city_id": 526,
    "name_fa": "سورچه پائین",
    "name_en": "سورچه پائین",
    "province": {
      "province_id": 4,
      "name_fa": "اصفهان",
      "name_en": "Esfahan"
    },
    "location": {
      "longitude": 51.4277427,
      "latitude": 32.3502465
    },
    "created_at": "2026-02-09T16:01:38.932495+00:00",
    "updated_at": "2026-02-09T16:01:38.932495+00:00"
  },
  {
    "city_id": 523,
    "name_fa": "سیاه بوم",
    "name_en": "سیاه بوم",
    "province": {
      "province_id": 4,
      "name_fa": "اصفهان",
      "name_en": "Esfahan"
    },
    "location": {
      "longitude": 51.4244541,
      "latitude": 32.3560329
    },
    "created_at": "2026-02-09T16:01:38.909498+00:00",
    "updated_at": "2026-02-09T16:01:38.909498+00:00"
  },
  {
    "city_id": 524,
    "name_fa": "قروق آقا",
    "name_en": "قروق آقا",
    "province": {
      "province_id": 4,
      "name_fa": "اصفهان",
      "name_en": "Esfahan"
    },
    "location": {
      "longitude": 51.4167504,
      "latitude": 32.358243
    },
    "created_at": "2026-02-09T16:01:38.916538+00:00",
    "updated_at": "2026-02-09T16:01:38.916538+00:00"
  },
  {
    "city_id": 126,
    "name_fa": "اشتهارد",
    "name_en": "Eshtehard",
    "province": {
      "province_id": 5,
      "name_fa": "البرز",
      "name_en": "Alborz"
    },
    "location": {
      "longitude": 50.3670608,
      "latitude": 35.7234469
    },
    "created_at": "2026-02-09T16:01:35.575125+00:00",
    "updated_at": "2026-02-09T16:01:35.575125+00:00"
  },
  {
    "city_id": 478,
    "name_fa": "فردیس",
    "name_en": "Fardis",
    "province": {
      "province_id": 5,
      "name_fa": "البرز",
      "name_en": "Alborz"
    },
    "location": {
      "longitude": 50.9891563,
      "latitude": 35.7316704
    },
    "created_at": "2026-02-09T16:01:38.390633+00:00",
    "updated_at": "2026-02-09T16:01:38.390633+00:00"
  },
  {
    "city_id": 118,
    "name_fa": "هشتگرد",
    "name_en": "Hashtgerd",
    "province": {
      "province_id": 5,
      "name_fa": "البرز",
      "name_en": "Alborz"
    },
    "location": {
      "longitude": 50.6858036,
      "latitude": 35.9641824
    },
    "created_at": "2026-02-09T16:01:35.503233+00:00",
    "updated_at": "2026-02-09T16:01:35.503233+00:00"
  },
  {
    "city_id": 668,
    "name_fa": "کمالشهر",
    "name_en": "Kamalshahr",
    "province": {
      "province_id": 5,
      "name_fa": "البرز",
      "name_en": "Alborz"
    },
    "location": {
      "longitude": 50.880468,
      "latitude": 35.8624842
    },
    "created_at": "2026-02-09T16:01:40.150055+00:00",
    "updated_at": "2026-02-09T16:01:40.150055+00:00"
  },
  {
    "city_id": 231,
    "name_fa": "مهستان",
    "name_en": "Mehestan",
    "province": {
      "province_id": 5,
      "name_fa": "البرز",
      "name_en": "Alborz"
    },
    "location": {
      "longitude": 50.7267844,
      "latitude": 35.9953399
    },
    "created_at": "2026-02-09T16:01:36.447774+00:00",
    "updated_at": "2026-02-09T16:01:36.447774+00:00"
  },
  {
    "city_id": 7,
    "name_fa": "نظرآباد",
    "name_en": "Nazarabad",
    "province": {
      "province_id": 5,
      "name_fa": "البرز",
      "name_en": "Alborz"
    },
    "location": {
      "longitude": 50.6097443,
      "latitude": 35.9558897
    },
    "created_at": "2026-02-09T16:01:34.529260+00:00",
    "updated_at": "2026-02-09T16:01:34.529260+00:00"
  },
  {
    "city_id": 41,
    "name_fa": "طالقان",
    "name_en": "Taleqan",
    "province": {
      "province_id": 5,
      "name_fa": "البرز",
      "name_en": "Alborz"
    },
    "location": {
      "longitude": 50.7655155,
      "latitude": 36.177868
    },
    "created_at": "2026-02-09T16:01:34.805797+00:00",
    "updated_at": "2026-02-09T16:01:34.805797+00:00"
  },
  {
    "city_id": 687,
    "name_fa": "آسمان آباد",
    "name_en": "Asemanabad",
    "province": {
      "province_id": 6,
      "name_fa": "ایلام",
      "name_en": "Ilam"
    },
    "location": {
      "longitude": 46.4518435,
      "latitude": 33.8619245
    },
    "created_at": "2026-02-09T16:01:40.362639+00:00",
    "updated_at": "2026-02-09T16:01:40.362639+00:00"
  },
  {
    "city_id": 424,
    "name_fa": "ایلام",
    "name_en": "Ilam",
    "province": {
      "province_id": 6,
      "name_fa": "ایلام",
      "name_en": "Ilam"
    },
    "location": {
      "longitude": 46.4202743,
      "latitude": 33.6379365
    },
    "created_at": "2026-02-09T16:01:37.984142+00:00",
    "updated_at": "2026-02-09T16:01:37.984142+00:00"
  },
  {
    "city_id": 311,
    "name_fa": "آب پخش",
    "name_en": "Ab Pakhsh",
    "province": {
      "province_id": 7,
      "name_fa": "بوشهر",
      "name_en": "Bushehr"
    },
    "location": {
      "longitude": 51.0713656,
      "latitude": 29.3604336
    },
    "created_at": "2026-02-09T16:01:37.108227+00:00",
    "updated_at": "2026-02-09T16:01:37.108227+00:00"
  },
  {
    "city_id": 635,
    "name_fa": "آباد",
    "name_en": "Abad",
    "province": {
      "province_id": 7,
      "name_fa": "بوشهر",
      "name_en": "Bushehr"
    },
    "location": {
      "longitude": 51.2523566,
      "latitude": 29.0246495
    },
    "created_at": "2026-02-09T16:01:39.897875+00:00",
    "updated_at": "2026-02-09T16:01:39.897875+00:00"
  },
  {
    "city_id": 313,
    "name_fa": "آبدان",
    "name_en": "Abedan",
    "province": {
      "province_id": 7,
      "name_fa": "بوشهر",
      "name_en": "Bushehr"
    },
    "location": {
      "longitude": 51.7703454,
      "latitude": 28.0811819
    },
    "created_at": "2026-02-09T16:01:37.122696+00:00",
    "updated_at": "2026-02-09T16:01:37.122696+00:00"
  },
  {
    "city_id": 636,
    "name_fa": "انارستان",
    "name_en": "Anarestan",
    "province": {
      "province_id": 7,
      "name_fa": "بوشهر",
      "name_en": "Bushehr"
    },
    "location": {
      "longitude": 52.0649913,
      "latitude": 28.0322242
    },
    "created_at": "2026-02-09T16:01:39.905935+00:00",
    "updated_at": "2026-02-09T16:01:39.905935+00:00"
  },
  {
    "city_id": 61,
    "name_fa": "عسلویه",
    "name_en": "Asalouyeh",
    "province": {
      "province_id": 7,
      "name_fa": "بوشهر",
      "name_en": "Bushehr"
    },
    "location": {
      "longitude": 52.6070411,
      "latitude": 27.4760027
    },
    "created_at": "2026-02-09T16:01:34.992679+00:00",
    "updated_at": "2026-02-09T16:01:34.992679+00:00"
  },
  {
    "city_id": 147,
    "name_fa": "بندر دیر",
    "name_en": "Bandar Dayyer",
    "province": {
      "province_id": 7,
      "name_fa": "بوشهر",
      "name_en": "Bushehr"
    },
    "location": {
      "longitude": 51.9372144,
      "latitude": 27.8412393
    },
    "created_at": "2026-02-09T16:01:35.756458+00:00",
    "updated_at": "2026-02-09T16:01:35.756458+00:00"
  },
  {
    "city_id": 98,
    "name_fa": "بندر دیلم",
    "name_en": "Bandar Deylam",
    "province": {
      "province_id": 7,
      "name_fa": "بوشهر",
      "name_en": "Bushehr"
    },
    "location": {
      "longitude": 50.162503,
      "latitude": 30.0529363
    },
    "created_at": "2026-02-09T16:01:35.327213+00:00",
    "updated_at": "2026-02-09T16:01:35.327213+00:00"
  },
  {
    "city_id": 97,
    "name_fa": "بندر گناوه",
    "name_en": "Bandar Ganaveh",
    "province": {
      "province_id": 7,
      "name_fa": "بوشهر",
      "name_en": "Bushehr"
    },
    "location": {
      "longitude": 50.5183165,
      "latitude": 29.5818086
    },
    "created_at": "2026-02-09T16:01:35.319231+00:00",
    "updated_at": "2026-02-09T16:01:35.319231+00:00"
  },
  {
    "city_id": 675,
    "name_fa": "بندر ریگ",
    "name_en": "Bandar Rig",
    "province": {
      "province_id": 7,
      "name_fa": "بوشهر",
      "name_en": "Bushehr"
    },
    "location": {
      "longitude": 50.6295575,
      "latitude": 29.4875457
    },
    "created_at": "2026-02-09T16:01:40.202263+00:00",
    "updated_at": "2026-02-09T16:01:40.202263+00:00"
  },
  {
    "city_id": 119,
    "name_fa": "سیراف",
    "name_en": "Bandar Siraf",
    "province": {
      "province_id": 7,
      "name_fa": "بوشهر",
      "name_en": "Bushehr"
    },
    "location": {
      "longitude": 52.3480157,
      "latitude": 27.664912
    },
    "created_at": "2026-02-09T16:01:35.512267+00:00",
    "updated_at": "2026-02-09T16:01:35.512267+00:00"
  },
  {
    "city_id": 529,
    "name_fa": "بندر کنگان",
    "name_en": "Bander Kangan",
    "province": {
      "province_id": 7,
      "name_fa": "بوشهر",
      "name_en": "Bushehr"
    },
    "location": {
      "longitude": 52.06371,
      "latitude": 27.8370685
    },
    "created_at": "2026-02-09T16:01:38.976496+00:00",
    "updated_at": "2026-02-09T16:01:38.976496+00:00"
  },
  {
    "city_id": 637,
    "name_fa": "بردستان",
    "name_en": "Bardestan",
    "province": {
      "province_id": 7,
      "name_fa": "بوشهر",
      "name_en": "Bushehr"
    },
    "location": {
      "longitude": 51.9596196,
      "latitude": 27.874025
    },
    "created_at": "2026-02-09T16:01:39.912936+00:00",
    "updated_at": "2026-02-09T16:01:39.912936+00:00"
  },
  {
    "city_id": 639,
    "name_fa": "بیدخون",
    "name_en": "Bidkhun",
    "province": {
      "province_id": 7,
      "name_fa": "بوشهر",
      "name_en": "Bushehr"
    },
    "location": {
      "longitude": 52.6688701,
      "latitude": 27.4809463
    },
    "created_at": "2026-02-09T16:01:39.925932+00:00",
    "updated_at": "2026-02-09T16:01:39.925932+00:00"
  },
  {
    "city_id": 312,
    "name_fa": "بردخون",
    "name_en": "Bordekhoon",
    "province": {
      "province_id": 7,
      "name_fa": "بوشهر",
      "name_en": "Bushehr"
    },
    "location": {
      "longitude": 51.4771795,
      "latitude": 28.0623996
    },
    "created_at": "2026-02-09T16:01:37.115225+00:00",
    "updated_at": "2026-02-09T16:01:37.115225+00:00"
  },
  {
    "city_id": 22,
    "name_fa": "بوشهر",
    "name_en": "Bushehr",
    "province": {
      "province_id": 7,
      "name_fa": "بوشهر",
      "name_en": "Bushehr"
    },
    "location": {
      "longitude": 50.8458443,
      "latitude": 28.9310786
    },
    "created_at": "2026-02-09T16:01:34.644096+00:00",
    "updated_at": "2026-02-09T16:01:34.644096+00:00"
  },
  {
    "city_id": 638,
    "name_fa": "بوشکان",
    "name_en": "Bushkan",
    "province": {
      "province_id": 7,
      "name_fa": "بوشهر",
      "name_en": "Bushehr"
    },
    "location": {
      "longitude": 51.6986659,
      "latitude": 28.8303842
    },
    "created_at": "2026-02-09T16:01:39.919951+00:00",
    "updated_at": "2026-02-09T16:01:39.919951+00:00"
  },
  {
    "city_id": 96,
    "name_fa": "دالکی",
    "name_en": "Dalaki",
    "province": {
      "province_id": 7,
      "name_fa": "بوشهر",
      "name_en": "Bushehr"
    },
    "location": {
      "longitude": 51.2925138,
      "latitude": 29.4307486
    },
    "created_at": "2026-02-09T16:01:35.309230+00:00",
    "updated_at": "2026-02-09T16:01:35.309230+00:00"
  },
  {
    "city_id": 319,
    "name_fa": "دلوار",
    "name_en": "Delvar",
    "province": {
      "province_id": 7,
      "name_fa": "بوشهر",
      "name_en": "Bushehr"
    },
    "location": {
      "longitude": 51.0719232,
      "latitude": 28.7628729
    },
    "created_at": "2026-02-09T16:01:37.168338+00:00",
    "updated_at": "2026-02-09T16:01:37.168338+00:00"
  },
  {
    "city_id": 640,
    "name_fa": "دوراهک",
    "name_en": "Dowrahak",
    "province": {
      "province_id": 7,
      "name_fa": "بوشهر",
      "name_en": "Bushehr"
    },
    "location": {
      "longitude": 51.9598451,
      "latitude": 27.9471043
    },
    "created_at": "2026-02-09T16:01:39.933110+00:00",
    "updated_at": "2026-02-09T16:01:39.933110+00:00"
  },
  {
    "city_id": 120,
    "name_fa": "جم",
    "name_en": "Jam",
    "province": {
      "province_id": 7,
      "name_fa": "بوشهر",
      "name_en": "Bushehr"
    },
    "location": {
      "longitude": 52.3263597,
      "latitude": 27.8262811
    },
    "created_at": "2026-02-09T16:01:35.519524+00:00",
    "updated_at": "2026-02-09T16:01:35.519524+00:00"
  },
  {
    "city_id": 146,
    "name_fa": "کاکی",
    "name_en": "Kaki",
    "province": {
      "province_id": 7,
      "name_fa": "بوشهر",
      "name_en": "Bushehr"
    },
    "location": {
      "longitude": 51.523857,
      "latitude": 28.3366456
    },
    "created_at": "2026-02-09T16:01:35.748484+00:00",
    "updated_at": "2026-02-09T16:01:35.748484+00:00"
  },
  {
    "city_id": 315,
    "name_fa": "کلمه",
    "name_en": "Kalameh",
    "province": {
      "province_id": 7,
      "name_fa": "بوشهر",
      "name_en": "Bushehr"
    },
    "location": {
      "longitude": 51.4581903,
      "latitude": 28.9436694
    },
    "created_at": "2026-02-09T16:01:37.136580+00:00",
    "updated_at": "2026-02-09T16:01:37.136580+00:00"
  },
  {
    "city_id": 145,
    "name_fa": "خورموج",
    "name_en": "Khormoj",
    "province": {
      "province_id": 7,
      "name_fa": "بوشهر",
      "name_en": "Bushehr"
    },
    "location": {
      "longitude": 51.3758834,
      "latitude": 28.6543108
    },
    "created_at": "2026-02-09T16:01:35.740681+00:00",
    "updated_at": "2026-02-09T16:01:35.740681+00:00"
  },
  {
    "city_id": 317,
    "name_fa": "نخل تقی",
    "name_en": "Nakhl-e Taghi",
    "province": {
      "province_id": 7,
      "name_fa": "بوشهر",
      "name_en": "Bushehr"
    },
    "location": {
      "longitude": 52.583854,
      "latitude": 27.4980795
    },
    "created_at": "2026-02-09T16:01:37.152649+00:00",
    "updated_at": "2026-02-09T16:01:37.152649+00:00"
  },
  {
    "city_id": 318,
    "name_fa": "ریز",
    "name_en": "Riz",
    "province": {
      "province_id": 7,
      "name_fa": "بوشهر",
      "name_en": "Bushehr"
    },
    "location": {
      "longitude": 52.0837191,
      "latitude": 28.0517466
    },
    "created_at": "2026-02-09T16:01:37.161340+00:00",
    "updated_at": "2026-02-09T16:01:37.161340+00:00"
  },
  {
    "city_id": 316,
    "name_fa": "سعدآباد",
    "name_en": "Saadabad",
    "province": {
      "province_id": 7,
      "name_fa": "بوشهر",
      "name_en": "Bushehr"
    },
    "location": {
      "longitude": 51.1166292,
      "latitude": 29.3848355
    },
    "created_at": "2026-02-09T16:01:37.144597+00:00",
    "updated_at": "2026-02-09T16:01:37.144597+00:00"
  },
  {
    "city_id": 314,
    "name_fa": "شبانکاره",
    "name_en": "Shabankareh",
    "province": {
      "province_id": 7,
      "name_fa": "بوشهر",
      "name_en": "Bushehr"
    },
    "location": {
      "longitude": 50.9909974,
      "latitude": 29.4696724
    },
    "created_at": "2026-02-09T16:01:37.129243+00:00",
    "updated_at": "2026-02-09T16:01:37.129243+00:00"
  },
  {
    "city_id": 641,
    "name_fa": "شنبه",
    "name_en": "Shonbeh",
    "province": {
      "province_id": 7,
      "name_fa": "بوشهر",
      "name_en": "Bushehr"
    },
    "location": {
      "longitude": 51.7645229,
      "latitude": 28.3952701
    },
    "created_at": "2026-02-09T16:01:39.939087+00:00",
    "updated_at": "2026-02-09T16:01:39.939087+00:00"
  },
  {
    "city_id": 321,
    "name_fa": "تنگ ارم",
    "name_en": "Tang-e Eram",
    "province": {
      "province_id": 7,
      "name_fa": "بوشهر",
      "name_en": "Bushehr"
    },
    "location": {
      "longitude": 51.5293588,
      "latitude": 29.1544748
    },
    "created_at": "2026-02-09T16:01:37.182293+00:00",
    "updated_at": "2026-02-09T16:01:37.182293+00:00"
  },
  {
    "city_id": 320,
    "name_fa": "وحدتیه",
    "name_en": "Vahdatiyeh",
    "province": {
      "province_id": 7,
      "name_fa": "بوشهر",
      "name_en": "Bushehr"
    },
    "location": {
      "longitude": 51.2369657,
      "latitude": 29.48306
    },
    "created_at": "2026-02-09T16:01:37.175070+00:00",
    "updated_at": "2026-02-09T16:01:37.175070+00:00"
  },
  {
    "city_id": 230,
    "name_fa": "باقرشهر",
    "name_en": "Baqershahr",
    "province": {
      "province_id": 8,
      "name_fa": "تهران",
      "name_en": "Tehran"
    },
    "location": {
      "longitude": 51.4053842,
      "latitude": 35.5338489
    },
    "created_at": "2026-02-09T16:01:36.440771+00:00",
    "updated_at": "2026-02-09T16:01:36.440771+00:00"
  },
  {
    "city_id": 426,
    "name_fa": "بومهن",
    "name_en": "Bumehen",
    "province": {
      "province_id": 8,
      "name_fa": "تهران",
      "name_en": "Tehran"
    },
    "location": {
      "longitude": 51.864313,
      "latitude": 35.7285207
    },
    "created_at": "2026-02-09T16:01:38.001835+00:00",
    "updated_at": "2026-02-09T16:01:38.001835+00:00"
  },
  {
    "city_id": 626,
    "name_fa": "چهاردانگه",
    "name_en": "Chahar Dangeh",
    "province": {
      "province_id": 8,
      "name_fa": "تهران",
      "name_en": "Tehran"
    },
    "location": {
      "longitude": 51.3100612,
      "latitude": 35.6067482
    },
    "created_at": "2026-02-09T16:01:39.834624+00:00",
    "updated_at": "2026-02-09T16:01:39.834624+00:00"
  },
  {
    "city_id": 623,
    "name_fa": "ده خیر حسینی",
    "name_en": "Deh Kheyr Hosseini",
    "province": {
      "province_id": 8,
      "name_fa": "تهران",
      "name_en": "Tehran"
    },
    "location": {
      "longitude": 51.4663029,
      "latitude": 35.5324025
    },
    "created_at": "2026-02-09T16:01:39.816988+00:00",
    "updated_at": "2026-02-09T16:01:39.816988+00:00"
  },
  {
    "city_id": 625,
    "name_fa": "فرون آباد",
    "name_en": "Ferunabad",
    "province": {
      "province_id": 8,
      "name_fa": "تهران",
      "name_en": "Tehran"
    },
    "location": {
      "longitude": 51.6195825,
      "latitude": 35.5150443
    },
    "created_at": "2026-02-09T16:01:39.828950+00:00",
    "updated_at": "2026-02-09T16:01:39.828950+00:00"
  },
  {
    "city_id": 627,
    "name_fa": "گلستان",
    "name_en": "Golestan",
    "province": {
      "province_id": 8,
      "name_fa": "تهران",
      "name_en": "Tehran"
    },
    "location": {
      "longitude": 51.1767192,
      "latitude": 35.5214193
    },
    "created_at": "2026-02-09T16:01:39.842580+00:00",
    "updated_at": "2026-02-09T16:01:39.842580+00:00"
  },
  {
    "city_id": 229,
    "name_fa": "کهریزک",
    "name_en": "Kahrizak",
    "province": {
      "province_id": 8,
      "name_fa": "تهران",
      "name_en": "Tehran"
    },
    "location": {
      "longitude": 51.3618852,
      "latitude": 35.517323
    },
    "created_at": "2026-02-09T16:01:36.433815+00:00",
    "updated_at": "2026-02-09T16:01:36.433815+00:00"
  },
  {
    "city_id": 227,
    "name_fa": "لواسان",
    "name_en": "Lavasan",
    "province": {
      "province_id": 8,
      "name_fa": "تهران",
      "name_en": "Tehran"
    },
    "location": {
      "longitude": 51.6321444,
      "latitude": 35.8204845
    },
    "created_at": "2026-02-09T16:01:36.418681+00:00",
    "updated_at": "2026-02-09T16:01:36.418681+00:00"
  },
  {
    "city_id": 624,
    "name_fa": "صالحیه",
    "name_en": "Salehiyeh",
    "province": {
      "province_id": 8,
      "name_fa": "تهران",
      "name_en": "Tehran"
    },
    "location": {
      "longitude": 51.1915512,
      "latitude": 35.5052878
    },
    "created_at": "2026-02-09T16:01:39.822950+00:00",
    "updated_at": "2026-02-09T16:01:39.822950+00:00"
  },
  {
    "city_id": 1,
    "name_fa": "تهران",
    "name_en": "Tehran",
    "province": {
      "province_id": 8,
      "name_fa": "تهران",
      "name_en": "Tehran"
    },
    "location": {
      "longitude": 51.3896004,
      "latitude": 35.6892523
    },
    "created_at": "2026-02-09T16:01:34.482185+00:00",
    "updated_at": "2026-02-09T16:01:34.482185+00:00"
  },
  {
    "city_id": 182,
    "name_fa": "فرادنبه",
    "name_en": "Faradanbeh",
    "province": {
      "province_id": 9,
      "name_fa": "چهارمحال و بختیاری",
      "name_en": "Chaharmahal and Bakhtiari"
    },
    "location": {
      "longitude": 51.2176939,
      "latitude": 32.0080417
    },
    "created_at": "2026-02-09T16:01:36.040479+00:00",
    "updated_at": "2026-02-09T16:01:36.040479+00:00"
  },
  {
    "city_id": 183,
    "name_fa": "فارسان",
    "name_en": "Farsan",
    "province": {
      "province_id": 9,
      "name_fa": "چهارمحال و بختیاری",
      "name_en": "Chaharmahal and Bakhtiari"
    },
    "location": {
      "longitude": 50.5624938,
      "latitude": 32.2549162
    },
    "created_at": "2026-02-09T16:01:36.051392+00:00",
    "updated_at": "2026-02-09T16:01:36.051392+00:00"
  },
  {
    "city_id": 667,
    "name_fa": "کاج",
    "name_en": "Kāj",
    "province": {
      "province_id": 9,
      "name_fa": "چهارمحال و بختیاری",
      "name_en": "Chaharmahal and Bakhtiari"
    },
    "location": {
      "longitude": 50.5827861,
      "latitude": 32.0583082
    },
    "created_at": "2026-02-09T16:01:40.143052+00:00",
    "updated_at": "2026-02-09T16:01:40.143052+00:00"
  },
  {
    "city_id": 416,
    "name_fa": "نافچ",
    "name_en": "Nafch",
    "province": {
      "province_id": 9,
      "name_fa": "چهارمحال و بختیاری",
      "name_en": "Chaharmahal and Bakhtiari"
    },
    "location": {
      "longitude": 50.7896658,
      "latitude": 32.4228214
    },
    "created_at": "2026-02-09T16:01:37.905767+00:00",
    "updated_at": "2026-02-09T16:01:37.905767+00:00"
  },
  {
    "city_id": 417,
    "name_fa": "سودجان",
    "name_en": "Sodejan",
    "province": {
      "province_id": 9,
      "name_fa": "چهارمحال و بختیاری",
      "name_en": "Chaharmahal and Bakhtiari"
    },
    "location": {
      "longitude": 50.4018883,
      "latitude": 32.5215922
    },
    "created_at": "2026-02-09T16:01:37.913792+00:00",
    "updated_at": "2026-02-09T16:01:37.913792+00:00"
  },
  {
    "city_id": 255,
    "name_fa": "آرین شهر",
    "name_en": "Arianshahr",
    "province": {
      "province_id": 10,
      "name_fa": "خراسان جنوبی",
      "name_en": "South Khorasan"
    },
    "location": {
      "longitude": 59.2333976,
      "latitude": 33.3319207
    },
    "created_at": "2026-02-09T16:01:36.656657+00:00",
    "updated_at": "2026-02-09T16:01:36.656657+00:00"
  },
  {
    "city_id": 175,
    "name_fa": "اسدیه",
    "name_en": "Asadiyeh",
    "province": {
      "province_id": 10,
      "name_fa": "خراسان جنوبی",
      "name_en": "South Khorasan"
    },
    "location": {
      "longitude": 60.0211709,
      "latitude": 32.914166
    },
    "created_at": "2026-02-09T16:01:35.983474+00:00",
    "updated_at": "2026-02-09T16:01:35.983474+00:00"
  },
  {
    "city_id": 703,
    "name_fa": "باغستان",
    "name_en": "Baghestan",
    "province": {
      "province_id": 10,
      "name_fa": "خراسان جنوبی",
      "name_en": "South Khorasan"
    },
    "location": {
      "longitude": 58.2951724,
      "latitude": 34.104231
    },
    "created_at": "2026-02-09T16:01:40.568464+00:00",
    "updated_at": "2026-02-09T16:01:40.568464+00:00"
  },
  {
    "city_id": 410,
    "name_fa": "بشرویه",
    "name_en": "Boshruyeh",
    "province": {
      "province_id": 10,
      "name_fa": "خراسان جنوبی",
      "name_en": "South Khorasan"
    },
    "location": {
      "longitude": 57.4253814,
      "latitude": 33.8662098
    },
    "created_at": "2026-02-09T16:01:37.858868+00:00",
    "updated_at": "2026-02-09T16:01:37.858868+00:00"
  },
  {
    "city_id": 58,
    "name_fa": "دیهوک",
    "name_en": "Deyhuk",
    "province": {
      "province_id": 10,
      "name_fa": "خراسان جنوبی",
      "name_en": "South Khorasan"
    },
    "location": {
      "longitude": 57.5174149,
      "latitude": 33.2914689
    },
    "created_at": "2026-02-09T16:01:34.959760+00:00",
    "updated_at": "2026-02-09T16:01:34.959760+00:00"
  },
  {
    "city_id": 440,
    "name_fa": "ارسک",
    "name_en": "Eresk",
    "province": {
      "province_id": 10,
      "name_fa": "خراسان جنوبی",
      "name_en": "South Khorasan"
    },
    "location": {
      "longitude": 57.3732972,
      "latitude": 33.7015379
    },
    "created_at": "2026-02-09T16:01:38.112984+00:00",
    "updated_at": "2026-02-09T16:01:38.112984+00:00"
  },
  {
    "city_id": 93,
    "name_fa": "اسفدن",
    "name_en": "Esfeden",
    "province": {
      "province_id": 10,
      "name_fa": "خراسان جنوبی",
      "name_en": "South Khorasan"
    },
    "location": {
      "longitude": 59.7784177,
      "latitude": 33.6446129
    },
    "created_at": "2026-02-09T16:01:35.284415+00:00",
    "updated_at": "2026-02-09T16:01:35.285478+00:00"
  },
  {
    "city_id": 300,
    "name_fa": "عشق آباد",
    "name_en": "Eshqabad",
    "province": {
      "province_id": 10,
      "name_fa": "خراسان جنوبی",
      "name_en": "South Khorasan"
    },
    "location": {
      "longitude": 56.931383,
      "latitude": 34.3650838
    },
    "created_at": "2026-02-09T16:01:37.014219+00:00",
    "updated_at": "2026-02-09T16:01:37.014219+00:00"
  },
  {
    "city_id": 702,
    "name_fa": "اسلامیه",
    "name_en": "Eslamiyeh",
    "province": {
      "province_id": 10,
      "name_fa": "خراسان جنوبی",
      "name_en": "South Khorasan"
    },
    "location": {
      "longitude": 58.2196234,
      "latitude": 34.044869
    },
    "created_at": "2026-02-09T16:01:40.561463+00:00",
    "updated_at": "2026-02-09T16:01:40.561463+00:00"
  },
  {
    "city_id": 457,
    "name_fa": "گزیک",
    "name_en": "Gazik",
    "province": {
      "province_id": 10,
      "name_fa": "خراسان جنوبی",
      "name_en": "South Khorasan"
    },
    "location": {
      "longitude": 60.2266472,
      "latitude": 33.000821
    },
    "created_at": "2026-02-09T16:01:38.229981+00:00",
    "updated_at": "2026-02-09T16:01:38.229981+00:00"
  },
  {
    "city_id": 88,
    "name_fa": "خضری دشت بیاض",
    "name_en": "Khezri Dasht Beyaz",
    "province": {
      "province_id": 10,
      "name_fa": "خراسان جنوبی",
      "name_en": "South Khorasan"
    },
    "location": {
      "longitude": 58.8140837,
      "latitude": 34.0216542
    },
    "created_at": "2026-02-09T16:01:35.224986+00:00",
    "updated_at": "2026-02-09T16:01:35.224986+00:00"
  },
  {
    "city_id": 91,
    "name_fa": "نهبندان",
    "name_en": "Nehbandan",
    "province": {
      "province_id": 10,
      "name_fa": "خراسان جنوبی",
      "name_en": "South Khorasan"
    },
    "location": {
      "longitude": 60.0349456,
      "latitude": 31.5431543
    },
    "created_at": "2026-02-09T16:01:35.266426+00:00",
    "updated_at": "2026-02-09T16:01:35.266426+00:00"
  },
  {
    "city_id": 254,
    "name_fa": "نیمبلوک",
    "name_en": "Nimbeluk",
    "province": {
      "province_id": 10,
      "name_fa": "خراسان جنوبی",
      "name_en": "South Khorasan"
    },
    "location": {
      "longitude": 58.9319935,
      "latitude": 33.9122595
    },
    "created_at": "2026-02-09T16:01:36.649655+00:00",
    "updated_at": "2026-02-09T16:01:36.649655+00:00"
  },
  {
    "city_id": 422,
    "name_fa": "قهستان",
    "name_en": "Qohestan",
    "province": {
      "province_id": 10,
      "name_fa": "خراسان جنوبی",
      "name_en": "South Khorasan"
    },
    "location": {
      "longitude": 59.7165809,
      "latitude": 33.1495413
    },
    "created_at": "2026-02-09T16:01:37.967724+00:00",
    "updated_at": "2026-02-09T16:01:37.967724+00:00"
  },
  {
    "city_id": 92,
    "name_fa": "سربیشه",
    "name_en": "Sarbisheh",
    "province": {
      "province_id": 10,
      "name_fa": "خراسان جنوبی",
      "name_en": "South Khorasan"
    },
    "location": {
      "longitude": 59.7970516,
      "latitude": 32.5755743
    },
    "created_at": "2026-02-09T16:01:35.275422+00:00",
    "updated_at": "2026-02-09T16:01:35.275422+00:00"
  },
  {
    "city_id": 177,
    "name_fa": "سه قلعه",
    "name_en": "Se Qaleh",
    "province": {
      "province_id": 10,
      "name_fa": "خراسان جنوبی",
      "name_en": "South Khorasan"
    },
    "location": {
      "longitude": 58.3974252,
      "latitude": 33.6672142
    },
    "created_at": "2026-02-09T16:01:35.996494+00:00",
    "updated_at": "2026-02-09T16:01:35.996494+00:00"
  },
  {
    "city_id": 458,
    "name_fa": "طبس مسینا",
    "name_en": "Tabas-e Masina",
    "province": {
      "province_id": 10,
      "name_fa": "خراسان جنوبی",
      "name_en": "South Khorasan"
    },
    "location": {
      "longitude": 60.222247,
      "latitude": 32.8063555
    },
    "created_at": "2026-02-09T16:01:38.234983+00:00",
    "updated_at": "2026-02-09T16:01:38.234983+00:00"
  },
  {
    "city_id": 253,
    "name_fa": "زهان",
    "name_en": "Zohan",
    "province": {
      "province_id": 10,
      "name_fa": "خراسان جنوبی",
      "name_en": "South Khorasan"
    },
    "location": {
      "longitude": 59.8126423,
      "latitude": 33.4226757
    },
    "created_at": "2026-02-09T16:01:36.643654+00:00",
    "updated_at": "2026-02-09T16:01:36.643654+00:00"
  },
  {
    "city_id": 62,
    "name_fa": "عبدل آباد",
    "name_en": "Abdolabad",
    "province": {
      "province_id": 11,
      "name_fa": "خراسان رضوی",
      "name_en": "Khorasan Razavi"
    },
    "location": {
      "longitude": 58.7966931,
      "latitude": 35.0668873
    },
    "created_at": "2026-02-09T16:01:35.001670+00:00",
    "updated_at": "2026-02-09T16:01:35.001670+00:00"
  },
  {
    "city_id": 429,
    "name_fa": "احمدآباد صولت",
    "name_en": "Ahmadabad-e Sowlat",
    "province": {
      "province_id": 11,
      "name_fa": "خراسان رضوی",
      "name_en": "Khorasan Razavi"
    },
    "location": {
      "longitude": 60.6897163,
      "latitude": 35.1163649
    },